{
  "type": "FeatureCollection",
  "name": "cities_over_1million",
  "crs": {
    "type": "name",
    "properties": {
      "name": "urn:ogc:def:crs:OGC:1.3:CRS84"
    }
  },
  "features": [
    {
      "type": "Feature",
      "properties": {
        "ogc_fid": 78,
        "name": "盐城市",
        "country": "China",
        "iso_a2": "CN",
        "type": "city",
        "id": 41010,
        "population": 7260240
      },
      "geometry": {
        "type": "Point",
        "coordinates": [
          120.1576778,
          33.3495657
        ]
      }
    },
    {
      "type": "Feature",
      "properties": {
        "ogc_fid": 1299,
        "name": "Conakry",
        "country": "Guinea",
        "iso_a2": "GN",
        "type": "city",
        "id": 295405,
        "population": 1660973
      },
      "geometry": {
        "type": "Point",
        "coordinates": [
          -13.6998434,
          9.5170602
        ]
      }
    },
    {
      "type": "Feature",
      "properties": {
        "ogc_fid": 2845,
        "name": "Brasília",
        "country": "Brazil",
        "iso_a2": "BR",
        "type": "city",
        "id": 127,
        "population": 3055149
      },
      "geometry": {
        "type": "Point",
        "coordinates": [
          -47.8823172,
          -15.7934036
        ]
      }
    },
    {
      "type": "Feature",
      "properties": {
        "ogc_fid": 4807,
        "name": "القاهرة",
        "country": "Egypt",
        "iso_a2": "EG",
        "type": "city",
        "id": 260,
        "population": 9120350
      },
      "geometry": {
        "type": "Point",
        "coordinates": [
          31.2357257,
          30.0443879
        ]
      }
    },
    {
      "type": "Feature",
      "properties": {
        "ogc_fid": 5612,
        "name": "عمان",
        "country": "Jordan",
        "iso_a2": "JO",
        "type": "city",
        "id": 291,
        "population": 4000000
      },
      "geometry": {
        "type": "Point",
        "coordinates": [
          35.9239625,
          31.9515694
        ]
      }
    },
    {
      "type": "Feature",
      "properties": {
        "ogc_fid": 6005,
        "name": "北海市",
        "country": "China",
        "iso_a2": "CN",
        "type": "city",
        "id": 335,
        "population": 1617500
      },
      "geometry": {
        "type": "Point",
        "coordinates": [
          109.1165772,
          21.4845174
        ]
      }
    },
    {
      "type": "Feature",
      "properties": {
        "ogc_fid": 6234,
        "name": "Москва",
        "country": "Russian Federation",
        "iso_a2": "RU",
        "type": "city",
        "id": 442,
        "population": 12655050
      },
      "geometry": {
        "type": "Point",
        "coordinates": [
          37.6174943,
          55.7504461
        ]
      }
    },
    {
      "type": "Feature",
      "properties": {
        "ogc_fid": 6344,
        "name": "თბილისი",
        "country": "Georgia",
        "iso_a2": "GE",
        "type": "city",
        "id": 554,
        "population": 1132000
      },
      "geometry": {
        "type": "Point",
        "coordinates": [
          44.8014495,
          41.6934591
        ]
      }
    },
    {
      "type": "Feature",
      "properties": {
        "ogc_fid": 6679,
        "name": "臺北市",
        "country": "Taiwan",
        "iso_a2": "CN-TW",
        "type": "city",
        "id": 898,
        "population": 2695704
      },
      "geometry": {
        "type": "Point",
        "coordinates": [
          121.563679600000015,
          25.0375198
        ]
      }
    },
    {
      "type": "Feature",
      "properties": {
        "ogc_fid": 6686,
        "name": "Köln",
        "country": "Germany",
        "iso_a2": "DE",
        "type": "city",
        "id": 905,
        "population": 1069200
      },
      "geometry": {
        "type": "Point",
        "coordinates": [
          6.959974,
          50.938361
        ]
      }
    },
    {
      "type": "Feature",
      "properties": {
        "ogc_fid": 6782,
        "name": "東京都",
        "country": "Japan",
        "iso_a2": "JP",
        "type": "city",
        "id": 1005,
        "population": 13613660
      },
      "geometry": {
        "type": "Point",
        "coordinates": [
          139.7594549,
          35.6828387
        ]
      }
    },
    {
      "type": "Feature",
      "properties": {
        "ogc_fid": 6900,
        "name": "Ouagadougou",
        "country": "Burkina Faso",
        "iso_a2": "BF",
        "type": "city",
        "id": 1132,
        "population": 1915102
      },
      "geometry": {
        "type": "Point",
        "coordinates": [
          -1.5270944,
          12.3681873
        ]
      }
    },
    {
      "type": "Feature",
      "properties": {
        "ogc_fid": 6928,
        "name": "Երևան",
        "country": "Armenia",
        "iso_a2": "AM",
        "type": "city",
        "id": 1161,
        "population": 1129300
      },
      "geometry": {
        "type": "Point",
        "coordinates": [
          44.5126174,
          40.1776245
        ]
      }
    },
    {
      "type": "Feature",
      "properties": {
        "ogc_fid": 6984,
        "name": "Manila",
        "country": "Philippines",
        "iso_a2": "PH",
        "type": "city",
        "id": 1217,
        "population": 1780148
      },
      "geometry": {
        "type": "Point",
        "coordinates": [
          120.978261800000013,
          14.5948914
        ]
      }
    },
    {
      "type": "Feature",
      "properties": {
        "ogc_fid": 7035,
        "name": "ঢাকা",
        "country": "Bangladesh",
        "iso_a2": "BD",
        "type": "city",
        "id": 1270,
        "population": 21741000
      },
      "geometry": {
        "type": "Point",
        "coordinates": [
          90.4026151,
          23.7861979
        ]
      }
    },
    {
      "type": "Feature",
      "properties": {
        "ogc_fid": 7126,
        "name": "Київ",
        "country": "Ukraine",
        "iso_a2": "UA",
        "type": "city",
        "id": 1362,
        "population": 2909697
      },
      "geometry": {
        "type": "Point",
        "coordinates": [
          30.5241361,
          50.4500336
        ]
      }
    },
    {
      "type": "Feature",
      "properties": {
        "ogc_fid": 7250,
        "name": "София",
        "country": "Bulgaria",
        "iso_a2": "BG",
        "type": "city",
        "id": 1489,
        "population": 1286383
      },
      "geometry": {
        "type": "Point",
        "coordinates": [
          23.3221789,
          42.6978634
        ]
      }
    },
    {
      "type": "Feature",
      "properties": {
        "ogc_fid": 7286,
        "name": "Porto Alegre",
        "country": "Brazil",
        "iso_a2": "BR",
        "type": "city",
        "id": 1525,
        "population": 1467823
      },
      "geometry": {
        "type": "Point",
        "coordinates": [
          -51.2303767,
          -30.0324999
        ]
      }
    },
    {
      "type": "Feature",
      "properties": {
        "ogc_fid": 7365,
        "name": "洛阳市",
        "country": "China",
        "iso_a2": "CN",
        "type": "city",
        "id": 1605,
        "population": 1926000
      },
      "geometry": {
        "type": "Point",
        "coordinates": [
          112.4477046,
          34.6196539
        ]
      }
    },
    {
      "type": "Feature",
      "properties": {
        "ogc_fid": 7366,
        "name": "深圳市",
        "country": "China",
        "iso_a2": "CN",
        "type": "city",
        "id": 1606,
        "population": 12528300
      },
      "geometry": {
        "type": "Point",
        "coordinates": [
          114.0545429,
          22.5445741
        ]
      }
    },
    {
      "type": "Feature",
      "properties": {
        "ogc_fid": 7501,
        "name": "서울",
        "country": "Republic of Korea",
        "iso_a2": "KR",
        "type": "city",
        "id": 1744,
        "population": 9509458
      },
      "geometry": {
        "type": "Point",
        "coordinates": [
          126.9782914,
          37.5666791
        ]
      }
    },
    {
      "type": "Feature",
      "properties": {
        "ogc_fid": 7522,
        "name": "武汉市",
        "country": "China",
        "iso_a2": "CN",
        "type": "city",
        "id": 1767,
        "population": 12450000
      },
      "geometry": {
        "type": "Point",
        "coordinates": [
          114.2999353,
          30.5951051
        ]
      }
    },
    {
      "type": "Feature",
      "properties": {
        "ogc_fid": 7528,
        "name": "مسقط",
        "country": "Oman",
        "iso_a2": "OM",
        "type": "city",
        "id": 1773,
        "population": 1090797
      },
      "geometry": {
        "type": "Point",
        "coordinates": [
          58.3829448,
          23.5882019
        ]
      }
    },
    {
      "type": "Feature",
      "properties": {
        "ogc_fid": 7536,
        "name": "Budapest",
        "country": "Hungary",
        "iso_a2": "HU",
        "type": "city",
        "id": 1782,
        "population": 1723836
      },
      "geometry": {
        "type": "Point",
        "coordinates": [
          19.0403594,
          47.4979937
        ]
      }
    },
    {
      "type": "Feature",
      "properties": {
        "ogc_fid": 7582,
        "name": "Αθήνα",
        "country": "Greece",
        "iso_a2": "GR",
        "type": "city",
        "id": 1828,
        "population": 3090508
      },
      "geometry": {
        "type": "Point",
        "coordinates": [
          23.7283052,
          37.9839412
        ]
      }
    },
    {
      "type": "Feature",
      "properties": {
        "ogc_fid": 7789,
        "name": "Минск",
        "country": "Belarus",
        "iso_a2": "BY",
        "type": "city",
        "id": 2038,
        "population": 2020600
      },
      "geometry": {
        "type": "Point",
        "coordinates": [
          27.5618225,
          53.9024716
        ]
      }
    },
    {
      "type": "Feature",
      "properties": {
        "ogc_fid": 8207,
        "name": "Berlin",
        "country": "Germany",
        "iso_a2": "DE",
        "type": "city",
        "id": 2548,
        "population": 3769962
      },
      "geometry": {
        "type": "Point",
        "coordinates": [
          13.3888599,
          52.5170365
        ]
      }
    },
    {
      "type": "Feature",
      "properties": {
        "ogc_fid": 8225,
        "name": "München",
        "country": "Germany",
        "iso_a2": "DE",
        "type": "city",
        "id": 2484,
        "population": 1484226
      },
      "geometry": {
        "type": "Point",
        "coordinates": [
          11.5753822,
          48.1371079
        ]
      }
    },
    {
      "type": "Feature",
      "properties": {
        "ogc_fid": 8251,
        "name": "دمشق",
        "country": "Syria",
        "iso_a2": "SY",
        "type": "city",
        "id": 2511,
        "population": 1711000
      },
      "geometry": {
        "type": "Point",
        "coordinates": [
          36.3095814,
          33.5130695
        ]
      }
    },
    {
      "type": "Feature",
      "properties": {
        "ogc_fid": 8253,
        "name": "Toshkent",
        "country": "Uzbekistan",
        "iso_a2": "UZ",
        "type": "city",
        "id": 2513,
        "population": 2622700
      },
      "geometry": {
        "type": "Point",
        "coordinates": [
          69.2787079,
          41.3123363
        ]
      }
    },
    {
      "type": "Feature",
      "properties": {
        "ogc_fid": 8255,
        "name": "تهران",
        "country": "Iran",
        "iso_a2": "IR",
        "type": "city",
        "id": 2515,
        "population": 8693706
      },
      "geometry": {
        "type": "Point",
        "coordinates": [
          51.3896004,
          35.6892523
        ]
      }
    },
    {
      "type": "Feature",
      "properties": {
        "ogc_fid": 8257,
        "name": "Jakarta",
        "country": "Indonesia",
        "iso_a2": "ID",
        "type": "city",
        "id": 2517,
        "population": 10467629
      },
      "geometry": {
        "type": "Point",
        "coordinates": [
          106.827183,
          -6.1753942
        ]
      }
    },
    {
      "type": "Feature",
      "properties": {
        "ogc_fid": 8260,
        "name": "Ciudad de México",
        "country": "Mexico",
        "iso_a2": "MX",
        "type": "city",
        "id": 2520,
        "population": 8555500
      },
      "geometry": {
        "type": "Point",
        "coordinates": [
          -99.1331785,
          19.4326296
        ]
      }
    },
    {
      "type": "Feature",
      "properties": {
        "ogc_fid": 8263,
        "name": "Hamburg",
        "country": "Germany",
        "iso_a2": "DE",
        "type": "city",
        "id": 2523,
        "population": 1812709
      },
      "geometry": {
        "type": "Point",
        "coordinates": [
          10.000654,
          53.550341
        ]
      }
    },
    {
      "type": "Feature",
      "properties": {
        "ogc_fid": 8268,
        "name": "Singapore",
        "country": "Singapore",
        "iso_a2": "SG",
        "type": "city",
        "id": 2528,
        "population": 5535002
      },
      "geometry": {
        "type": "Point",
        "coordinates": [
          103.8519072,
          1.2899175
        ]
      }
    },
    {
      "type": "Feature",
      "properties": {
        "ogc_fid": 8275,
        "name": "合肥市",
        "country": "China",
        "iso_a2": "CN",
        "type": "city",
        "id": 2535,
        "population": 9369881
      },
      "geometry": {
        "type": "Point",
        "coordinates": [
          117.2218033,
          31.8228094
        ]
      }
    },
    {
      "type": "Feature",
      "properties": {
        "ogc_fid": 8286,
        "name": "Praha",
        "country": "Czech Republic",
        "iso_a2": "CZ",
        "type": "city",
        "id": 2546,
        "population": 1324277
      },
      "geometry": {
        "type": "Point",
        "coordinates": [
          14.4212535,
          50.0874654
        ]
      }
    },
    {
      "type": "Feature",
      "properties": {
        "ogc_fid": 8288,
        "name": "İstanbul",
        "country": "Turkey",
        "iso_a2": "TR",
        "type": "city",
        "id": 2549,
        "population": 15840900
      },
      "geometry": {
        "type": "Point",
        "coordinates": [
          28.9662187,
          41.0091982
        ]
      }
    },
    {
      "type": "Feature",
      "properties": {
        "ogc_fid": 8369,
        "name": "Johannesburg",
        "country": "South Africa",
        "iso_a2": "ZA",
        "type": "city",
        "id": 2632,
        "population": 4434827
      },
      "geometry": {
        "type": "Point",
        "coordinates": [
          28.049722,
          -26.205
        ]
      }
    },
    {
      "type": "Feature",
      "properties": {
        "ogc_fid": 8373,
        "name": "Kayseri",
        "country": "Turkey",
        "iso_a2": "TR",
        "type": "city",
        "id": 2636,
        "population": 1389680
      },
      "geometry": {
        "type": "Point",
        "coordinates": [
          35.4873214,
          38.7219011
        ]
      }
    },
    {
      "type": "Feature",
      "properties": {
        "ogc_fid": 8470,
        "name": "Sukajaya Lempasing",
        "country": "Indonesia",
        "iso_a2": "ID",
        "type": "village",
        "id": 2738,
        "population": 5001000
      },
      "geometry": {
        "type": "Point",
        "coordinates": [
          105.2354626,
          -5.5057822
        ]
      }
    },
    {
      "type": "Feature",
      "properties": {
        "ogc_fid": 8533,
        "name": "Medan",
        "country": "Indonesia",
        "iso_a2": "ID",
        "type": "city",
        "id": 2801,
        "population": 2097610
      },
      "geometry": {
        "type": "Point",
        "coordinates": [
          98.6738261,
          3.5896654
        ]
      }
    },
    {
      "type": "Feature",
      "properties": {
        "ogc_fid": 8562,
        "name": "Makassar",
        "country": "Indonesia",
        "iso_a2": "ID",
        "type": "city",
        "id": 2841,
        "population": 1130384
      },
      "geometry": {
        "type": "Point",
        "coordinates": [
          119.4124282,
          -5.1342962
        ]
      }
    },
    {
      "type": "Feature",
      "properties": {
        "ogc_fid": 8601,
        "name": "Bekasi",
        "country": "Indonesia",
        "iso_a2": "ID",
        "type": "city",
        "id": 2883,
        "population": 2334871
      },
      "geometry": {
        "type": "Point",
        "coordinates": [
          106.9945444,
          -6.2349858
        ]
      }
    },
    {
      "type": "Feature",
      "properties": {
        "ogc_fid": 8604,
        "name": "Tangerang Selatan",
        "country": "Indonesia",
        "iso_a2": "ID",
        "type": "city",
        "id": 2886,
        "population": 1290322
      },
      "geometry": {
        "type": "Point",
        "coordinates": [
          106.70854940000001,
          -6.2955404
        ]
      }
    },
    {
      "type": "Feature",
      "properties": {
        "ogc_fid": 8687,
        "name": "Tangerang",
        "country": "Indonesia",
        "iso_a2": "ID",
        "type": "city",
        "id": 2972,
        "population": 2185304
      },
      "geometry": {
        "type": "Point",
        "coordinates": [
          106.638446800000011,
          -6.1760311
        ]
      }
    },
    {
      "type": "Feature",
      "properties": {
        "ogc_fid": 8701,
        "name": "Depok",
        "country": "Indonesia",
        "iso_a2": "ID",
        "type": "city",
        "id": 2986,
        "population": 1738570
      },
      "geometry": {
        "type": "Point",
        "coordinates": [
          106.8158348,
          -6.4071903
        ]
      }
    },
    {
      "type": "Feature",
      "properties": {
        "ogc_fid": 8753,
        "name": "Pekanbaru",
        "country": "Indonesia",
        "iso_a2": "ID",
        "type": "city",
        "id": 3039,
        "population": 1038118
      },
      "geometry": {
        "type": "Point",
        "coordinates": [
          101.4515727,
          0.5262455
        ]
      }
    },
    {
      "type": "Feature",
      "properties": {
        "ogc_fid": 8792,
        "name": "Padang",
        "country": "Indonesia",
        "iso_a2": "ID",
        "type": "city",
        "id": 3082,
        "population": 1000096
      },
      "geometry": {
        "type": "Point",
        "coordinates": [
          100.3632561,
          -0.9247587
        ]
      }
    },
    {
      "type": "Feature",
      "properties": {
        "ogc_fid": 8825,
        "name": "Bandung",
        "country": "Indonesia",
        "iso_a2": "ID",
        "type": "city",
        "id": 3118,
        "population": 2390120
      },
      "geometry": {
        "type": "Point",
        "coordinates": [
          107.604953900000012,
          -6.9344694
        ]
      }
    },
    {
      "type": "Feature",
      "properties": {
        "ogc_fid": 8841,
        "name": "Palembang",
        "country": "Indonesia",
        "iso_a2": "ID",
        "type": "city",
        "id": 3135,
        "population": 1708413
      },
      "geometry": {
        "type": "Point",
        "coordinates": [
          104.756857,
          -2.9888297
        ]
      }
    },
    {
      "type": "Feature",
      "properties": {
        "ogc_fid": 8854,
        "name": "Batam",
        "country": "Indonesia",
        "iso_a2": "ID",
        "type": "city",
        "id": 3151,
        "population": 1236399
      },
      "geometry": {
        "type": "Point",
        "coordinates": [
          104.03836960000001,
          1.1030815
        ]
      }
    },
    {
      "type": "Feature",
      "properties": {
        "ogc_fid": 8894,
        "name": "Semarang",
        "country": "Indonesia",
        "iso_a2": "ID",
        "type": "city",
        "id": 3190,
        "population": 1555984
      },
      "geometry": {
        "type": "Point",
        "coordinates": [
          110.4229104,
          -6.9903988
        ]
      }
    },
    {
      "type": "Feature",
      "properties": {
        "ogc_fid": 8902,
        "name": "Sumenep",
        "country": "Indonesia",
        "iso_a2": "ID",
        "type": "town",
        "id": 3200,
        "population": 1041915
      },
      "geometry": {
        "type": "Point",
        "coordinates": [
          113.8598666,
          -7.006745
        ]
      }
    },
    {
      "type": "Feature",
      "properties": {
        "ogc_fid": 8917,
        "name": "Tulungagung",
        "country": "Indonesia",
        "iso_a2": "ID",
        "type": "town",
        "id": 3225,
        "population": 1002807
      },
      "geometry": {
        "type": "Point",
        "coordinates": [
          111.900885800000012,
          -8.0661638
        ]
      }
    },
    {
      "type": "Feature",
      "properties": {
        "ogc_fid": 8918,
        "name": "Serindang",
        "country": "Indonesia",
        "iso_a2": "ID",
        "type": "village",
        "id": 3226,
        "population": 1001000
      },
      "geometry": {
        "type": "Point",
        "coordinates": [
          109.1331327,
          1.144967
        ]
      }
    },
    {
      "type": "Feature",
      "properties": {
        "ogc_fid": 8924,
        "name": "Surabaya",
        "country": "Indonesia",
        "iso_a2": "ID",
        "type": "city",
        "id": 3233,
        "population": 2765487
      },
      "geometry": {
        "type": "Point",
        "coordinates": [
          112.7378266,
          -7.2459717
        ]
      }
    },
    {
      "type": "Feature",
      "properties": {
        "ogc_fid": 9106,
        "name": "Kuala Lumpur",
        "country": "Malaysia",
        "iso_a2": "MY",
        "type": "city",
        "id": 3422,
        "population": 1768600
      },
      "geometry": {
        "type": "Point",
        "coordinates": [
          101.6942371,
          3.1516964
        ]
      }
    },
    {
      "type": "Feature",
      "properties": {
        "ogc_fid": 15362,
        "name": "Santiago",
        "country": "Chile",
        "iso_a2": "CL",
        "type": "city",
        "id": 9755,
        "population": 6139087
      },
      "geometry": {
        "type": "Point",
        "coordinates": [
          -70.6504502,
          -33.4377756
        ]
      }
    },
    {
      "type": "Feature",
      "properties": {
        "ogc_fid": 29031,
        "name": "Santa Cruz de la Sierra",
        "country": "Bolivia",
        "iso_a2": "BO",
        "type": "city",
        "id": 23614,
        "population": 2000000
      },
      "geometry": {
        "type": "Point",
        "coordinates": [
          -63.1820853,
          -17.7834936
        ]
      }
    },
    {
      "type": "Feature",
      "properties": {
        "ogc_fid": 33237,
        "name": "Lima",
        "country": "Peru",
        "iso_a2": "PE",
        "type": "city",
        "id": 27889,
        "population": 9989369
      },
      "geometry": {
        "type": "Point",
        "coordinates": [
          -77.0365256,
          -12.0621065
        ]
      }
    },
    {
      "type": "Feature",
      "properties": {
        "ogc_fid": 34480,
        "name": "Rosario",
        "country": "Argentina",
        "iso_a2": "AR",
        "type": "city",
        "id": 29146,
        "population": 1320000
      },
      "geometry": {
        "type": "Point",
        "coordinates": [
          -60.6615415,
          -32.9595004
        ]
      }
    },
    {
      "type": "Feature",
      "properties": {
        "ogc_fid": 34651,
        "name": "Buenos Aires",
        "country": "Argentina",
        "iso_a2": "AR",
        "type": "city",
        "id": 29319,
        "population": 2890000
      },
      "geometry": {
        "type": "Point",
        "coordinates": [
          -58.4370894,
          -34.6075682
        ]
      }
    },
    {
      "type": "Feature",
      "properties": {
        "ogc_fid": 37143,
        "name": "Córdoba",
        "country": "Argentina",
        "iso_a2": "AR",
        "type": "city",
        "id": 31851,
        "population": 1329604
      },
      "geometry": {
        "type": "Point",
        "coordinates": [
          -64.183319,
          -31.4173391
        ]
      }
    },
    {
      "type": "Feature",
      "properties": {
        "ogc_fid": 37819,
        "name": "Muqdisho مقديشو",
        "country": "Somalia",
        "iso_a2": "SO",
        "type": "city",
        "id": 32538,
        "population": 1700000
      },
      "geometry": {
        "type": "Point",
        "coordinates": [
          45.3419183,
          2.0349312
        ]
      }
    },
    {
      "type": "Feature",
      "properties": {
        "ogc_fid": 38240,
        "name": "Indore",
        "country": "India",
        "iso_a2": "IN",
        "type": "city",
        "id": 32974,
        "population": 3272335
      },
      "geometry": {
        "type": "Point",
        "coordinates": [
          75.868199600000011,
          22.7203616
        ]
      }
    },
    {
      "type": "Feature",
      "properties": {
        "ogc_fid": 38416,
        "name": "Bengaluru",
        "country": "India",
        "iso_a2": "IN",
        "type": "city",
        "id": 33155,
        "population": 10839725
      },
      "geometry": {
        "type": "Point",
        "coordinates": [
          77.590082,
          12.9767936
        ]
      }
    },
    {
      "type": "Feature",
      "properties": {
        "ogc_fid": 38881,
        "name": "Amritsar",
        "country": "India",
        "iso_a2": "IN",
        "type": "city",
        "id": 33634,
        "population": 1132761
      },
      "geometry": {
        "type": "Point",
        "coordinates": [
          74.8736788,
          31.6343083
        ]
      }
    },
    {
      "type": "Feature",
      "properties": {
        "ogc_fid": 39164,
        "name": "Thane",
        "country": "India",
        "iso_a2": "IN",
        "type": "town",
        "id": 33918,
        "population": 1841488
      },
      "geometry": {
        "type": "Point",
        "coordinates": [
          72.97017790000001,
          19.1943294
        ]
      }
    },
    {
      "type": "Feature",
      "properties": {
        "ogc_fid": 39198,
        "name": "Nagpur",
        "country": "India",
        "iso_a2": "IN",
        "type": "city",
        "id": 33953,
        "population": 2405700
      },
      "geometry": {
        "type": "Point",
        "coordinates": [
          79.0820556,
          21.1498134
        ]
      }
    },
    {
      "type": "Feature",
      "properties": {
        "ogc_fid": 39363,
        "name": "Kalyan-Dombivli",
        "country": "India",
        "iso_a2": "IN",
        "type": "city",
        "id": 34123,
        "population": 1247327
      },
      "geometry": {
        "type": "Point",
        "coordinates": [
          73.1182464,
          19.2334875
        ]
      }
    },
    {
      "type": "Feature",
      "properties": {
        "ogc_fid": 39390,
        "name": "Aurangabad",
        "country": "India",
        "iso_a2": "IN",
        "type": "city",
        "id": 34150,
        "population": 1175116
      },
      "geometry": {
        "type": "Point",
        "coordinates": [
          75.3390241,
          19.877263
        ]
      }
    },
    {
      "type": "Feature",
      "properties": {
        "ogc_fid": 39621,
        "name": "Vasai-Virar",
        "country": "India",
        "iso_a2": "IN",
        "type": "city",
        "id": 34383,
        "population": 1221000
      },
      "geometry": {
        "type": "Point",
        "coordinates": [
          72.82249010000001,
          19.4258788
        ]
      }
    },
    {
      "type": "Feature",
      "properties": {
        "ogc_fid": 39654,
        "name": "Pimpri-Chinchwad",
        "country": "India",
        "iso_a2": "IN",
        "type": "city",
        "id": 34417,
        "population": 1729320
      },
      "geometry": {
        "type": "Point",
        "coordinates": [
          73.8009829,
          18.6279288
        ]
      }
    },
    {
      "type": "Feature",
      "properties": {
        "ogc_fid": 39756,
        "name": "Agra",
        "country": "India",
        "iso_a2": "IN",
        "type": "city",
        "id": 34531,
        "population": 1500000
      },
      "geometry": {
        "type": "Point",
        "coordinates": [
          78.0098161,
          27.1752554
        ]
      }
    },
    {
      "type": "Feature",
      "properties": {
        "ogc_fid": 39868,
        "name": "Hyderabad",
        "country": "India",
        "iso_a2": "IN",
        "type": "city",
        "id": 34644,
        "population": 6809970
      },
      "geometry": {
        "type": "Point",
        "coordinates": [
          78.4740613,
          17.360589
        ]
      }
    },
    {
      "type": "Feature",
      "properties": {
        "ogc_fid": 40035,
        "name": "Navi Mumbai",
        "country": "India",
        "iso_a2": "IN",
        "type": "city",
        "id": 34812,
        "population": 1120547
      },
      "geometry": {
        "type": "Point",
        "coordinates": [
          73.0198537,
          19.0308262
        ]
      }
    },
    {
      "type": "Feature",
      "properties": {
        "ogc_fid": 40136,
        "name": "Jamnagar",
        "country": "India",
        "iso_a2": "IN",
        "type": "city",
        "id": 34914,
        "population": 2160119
      },
      "geometry": {
        "type": "Point",
        "coordinates": [
          70.0552102,
          22.4732415
        ]
      }
    },
    {
      "type": "Feature",
      "properties": {
        "ogc_fid": 40181,
        "name": "Nashik",
        "country": "India",
        "iso_a2": "IN",
        "type": "city",
        "id": 34960,
        "population": 1486000
      },
      "geometry": {
        "type": "Point",
        "coordinates": [
          73.7902364,
          20.0112475
        ]
      }
    },
    {
      "type": "Feature",
      "properties": {
        "ogc_fid": 40219,
        "name": "Mumbai",
        "country": "India",
        "iso_a2": "IN",
        "type": "city",
        "id": 34998,
        "population": 12442373
      },
      "geometry": {
        "type": "Point",
        "coordinates": [
          72.878176,
          19.0785451
        ]
      }
    },
    {
      "type": "Feature",
      "properties": {
        "ogc_fid": 40238,
        "name": "Pune",
        "country": "India",
        "iso_a2": "IN",
        "type": "city",
        "id": 35018,
        "population": 3115431
      },
      "geometry": {
        "type": "Point",
        "coordinates": [
          73.8544541,
          18.521428
        ]
      }
    },
    {
      "type": "Feature",
      "properties": {
        "ogc_fid": 40307,
        "name": "Ahmedabad",
        "country": "India",
        "iso_a2": "IN",
        "type": "city",
        "id": 35087,
        "population": 6352254
      },
      "geometry": {
        "type": "Point",
        "coordinates": [
          72.579706800000011,
          23.0216238
        ]
      }
    },
    {
      "type": "Feature",
      "properties": {
        "ogc_fid": 40351,
        "name": "Siliguri",
        "country": "India",
        "iso_a2": "IN",
        "type": "city",
        "id": 35133,
        "population": 1572000
      },
      "geometry": {
        "type": "Point",
        "coordinates": [
          88.4309916,
          26.7164127
        ]
      }
    },
    {
      "type": "Feature",
      "properties": {
        "ogc_fid": 40806,
        "name": "Raipur",
        "country": "India",
        "iso_a2": "IN",
        "type": "city",
        "id": 35595,
        "population": 1010087
      },
      "geometry": {
        "type": "Point",
        "coordinates": [
          81.6336833,
          21.2379469
        ]
      }
    },
    {
      "type": "Feature",
      "properties": {
        "ogc_fid": 41616,
        "name": "Prayagraj",
        "country": "India",
        "iso_a2": "IN",
        "type": "city",
        "id": 36427,
        "population": 5959798
      },
      "geometry": {
        "type": "Point",
        "coordinates": [
          81.8338005,
          25.4381302
        ]
      }
    },
    {
      "type": "Feature",
      "properties": {
        "ogc_fid": 42126,
        "name": "Dhanbad",
        "country": "India",
        "iso_a2": "IN",
        "type": "city",
        "id": 36945,
        "population": 1162472
      },
      "geometry": {
        "type": "Point",
        "coordinates": [
          86.4309638,
          23.7952809
        ]
      }
    },
    {
      "type": "Feature",
      "properties": {
        "ogc_fid": 42139,
        "name": "Howrah",
        "country": "India",
        "iso_a2": "IN",
        "type": "city",
        "id": 36958,
        "population": 1072161
      },
      "geometry": {
        "type": "Point",
        "coordinates": [
          88.3251045,
          22.5736296
        ]
      }
    },
    {
      "type": "Feature",
      "properties": {
        "ogc_fid": 42166,
        "name": "Lucknow",
        "country": "India",
        "iso_a2": "IN",
        "type": "city",
        "id": 36985,
        "population": 4588455
      },
      "geometry": {
        "type": "Point",
        "coordinates": [
          80.934600100000011,
          26.8381
        ]
      }
    },
    {
      "type": "Feature",
      "properties": {
        "ogc_fid": 42261,
        "name": "Jaipur",
        "country": "India",
        "iso_a2": "IN",
        "type": "city",
        "id": 37080,
        "population": 3073400
      },
      "geometry": {
        "type": "Point",
        "coordinates": [
          75.8189817,
          26.9154576
        ]
      }
    },
    {
      "type": "Feature",
      "properties": {
        "ogc_fid": 42307,
        "name": "Kota",
        "country": "India",
        "iso_a2": "IN",
        "type": "city",
        "id": 37126,
        "population": 1001400
      },
      "geometry": {
        "type": "Point",
        "coordinates": [
          75.8574194,
          25.1737019
        ]
      }
    },
    {
      "type": "Feature",
      "properties": {
        "ogc_fid": 42373,
        "name": "Rajkot",
        "country": "India",
        "iso_a2": "IN",
        "type": "city",
        "id": 37192,
        "population": 1286678
      },
      "geometry": {
        "type": "Point",
        "coordinates": [
          70.8028377,
          22.3053263
        ]
      }
    },
    {
      "type": "Feature",
      "properties": {
        "ogc_fid": 42400,
        "name": "Srinagar",
        "country": "India",
        "iso_a2": "IN",
        "type": "city",
        "id": 37219,
        "population": 1180570
      },
      "geometry": {
        "type": "Point",
        "coordinates": [
          74.8204443,
          34.0747444
        ]
      }
    },
    {
      "type": "Feature",
      "properties": {
        "ogc_fid": 42406,
        "name": "Coimbatore",
        "country": "India",
        "iso_a2": "IN",
        "type": "city",
        "id": 37225,
        "population": 1050000
      },
      "geometry": {
        "type": "Point",
        "coordinates": [
          76.9628425,
          11.0018115
        ]
      }
    },
    {
      "type": "Feature",
      "properties": {
        "ogc_fid": 42767,
        "name": "Varanasi",
        "country": "India",
        "iso_a2": "IN",
        "type": "city",
        "id": 37591,
        "population": 3100000
      },
      "geometry": {
        "type": "Point",
        "coordinates": [
          83.007629200000011,
          25.3356491
        ]
      }
    },
    {
      "type": "Feature",
      "properties": {
        "ogc_fid": 42825,
        "name": "Madurai",
        "country": "India",
        "iso_a2": "IN",
        "type": "city",
        "id": 37652,
        "population": 1700000
      },
      "geometry": {
        "type": "Point",
        "coordinates": [
          78.1140983,
          9.9261153
        ]
      }
    },
    {
      "type": "Feature",
      "properties": {
        "ogc_fid": 42960,
        "name": "Chennai",
        "country": "India",
        "iso_a2": "IN",
        "type": "city",
        "id": 37787,
        "population": 4681087
      },
      "geometry": {
        "type": "Point",
        "coordinates": [
          80.270186,
          13.0836939
        ]
      }
    },
    {
      "type": "Feature",
      "properties": {
        "ogc_fid": 42968,
        "name": "Namakkal",
        "country": "India",
        "iso_a2": "IN",
        "type": "town",
        "id": 37795,
        "population": 1726601
      },
      "geometry": {
        "type": "Point",
        "coordinates": [
          78.16787,
          11.2191692
        ]
      }
    },
    {
      "type": "Feature",
      "properties": {
        "ogc_fid": 43209,
        "name": "Ghaziabad",
        "country": "India",
        "iso_a2": "IN",
        "type": "city",
        "id": 38037,
        "population": 1729000
      },
      "geometry": {
        "type": "Point",
        "coordinates": [
          77.41203560000001,
          28.6711527
        ]
      }
    },
    {
      "type": "Feature",
      "properties": {
        "ogc_fid": 43233,
        "name": "Chandigarh",
        "country": "India",
        "iso_a2": "IN",
        "type": "city",
        "id": 38063,
        "population": 1028667
      },
      "geometry": {
        "type": "Point",
        "coordinates": [
          76.7797143,
          30.7334421
        ]
      }
    },
    {
      "type": "Feature",
      "properties": {
        "ogc_fid": 44028,
        "name": "Nettapakkam",
        "country": "India",
        "iso_a2": "IN",
        "type": "village",
        "id": 38874,
        "population": 2500050000
      },
      "geometry": {
        "type": "Point",
        "coordinates": [
          79.6339075,
          11.8646584
        ]
      }
    },
    {
      "type": "Feature",
      "properties": {
        "ogc_fid": 44214,
        "name": "Vijayawada",
        "country": "India",
        "iso_a2": "IN",
        "type": "city",
        "id": 39066,
        "population": 1048240
      },
      "geometry": {
        "type": "Point",
        "coordinates": [
          80.6185102,
          16.5087586
        ]
      }
    },
    {
      "type": "Feature",
      "properties": {
        "ogc_fid": 44288,
        "name": "Kanpur",
        "country": "India",
        "iso_a2": "IN",
        "type": "city",
        "id": 39142,
        "population": 2767031
      },
      "geometry": {
        "type": "Point",
        "coordinates": [
          80.321758800000012,
          26.4609135
        ]
      }
    },
    {
      "type": "Feature",
      "properties": {
        "ogc_fid": 44369,
        "name": "Bhopal",
        "country": "India",
        "iso_a2": "IN",
        "type": "city",
        "id": 39224,
        "population": 1800000
      },
      "geometry": {
        "type": "Point",
        "coordinates": [
          77.401989,
          23.2584857
        ]
      }
    },
    {
      "type": "Feature",
      "properties": {
        "ogc_fid": 44396,
        "name": "Ranchi",
        "country": "India",
        "iso_a2": "IN",
        "type": "city",
        "id": 39251,
        "population": 1074000
      },
      "geometry": {
        "type": "Point",
        "coordinates": [
          85.3250387,
          23.3700501
        ]
      }
    },
    {
      "type": "Feature",
      "properties": {
        "ogc_fid": 44412,
        "name": "Kolkata",
        "country": "India",
        "iso_a2": "IN",
        "type": "city",
        "id": 39267,
        "population": 4486679
      },
      "geometry": {
        "type": "Point",
        "coordinates": [
          88.3638815,
          22.5726723
        ]
      }
    },
    {
      "type": "Feature",
      "properties": {
        "ogc_fid": 44654,
        "name": "Jodhpur",
        "country": "India",
        "iso_a2": "IN",
        "type": "city",
        "id": 39510,
        "population": 1034000
      },
      "geometry": {
        "type": "Point",
        "coordinates": [
          73.0351433,
          26.2967719
        ]
      }
    },
    {
      "type": "Feature",
      "properties": {
        "ogc_fid": 44783,
        "name": "Delhi",
        "country": "India",
        "iso_a2": "IN",
        "type": "city",
        "id": 39642,
        "population": 16787941
      },
      "geometry": {
        "type": "Point",
        "coordinates": [
          77.2219388,
          28.6517178
        ]
      }
    },
    {
      "type": "Feature",
      "properties": {
        "ogc_fid": 45050,
        "name": "梅州市",
        "country": "China",
        "iso_a2": "CN",
        "type": "city",
        "id": 39911,
        "population": 4240139
      },
      "geometry": {
        "type": "Point",
        "coordinates": [
          116.117142800000011,
          24.2918414
        ]
      }
    },
    {
      "type": "Feature",
      "properties": {
        "ogc_fid": 45052,
        "name": "潮州市",
        "country": "China",
        "iso_a2": "CN",
        "type": "city",
        "id": 39913,
        "population": 2669844
      },
      "geometry": {
        "type": "Point",
        "coordinates": [
          116.6205482,
          23.6566146
        ]
      }
    },
    {
      "type": "Feature",
      "properties": {
        "ogc_fid": 45054,
        "name": "南昌市",
        "country": "China",
        "iso_a2": "CN",
        "type": "city",
        "id": 39915,
        "population": 5042566
      },
      "geometry": {
        "type": "Point",
        "coordinates": [
          115.8540042,
          28.687547
        ]
      }
    },
    {
      "type": "Feature",
      "properties": {
        "ogc_fid": 45055,
        "name": "抚州市",
        "country": "China",
        "iso_a2": "CN",
        "type": "city",
        "id": 39916,
        "population": 4180000
      },
      "geometry": {
        "type": "Point",
        "coordinates": [
          116.3530413,
          27.9511188
        ]
      }
    },
    {
      "type": "Feature",
      "properties": {
        "ogc_fid": 45064,
        "name": "泰州市",
        "country": "China",
        "iso_a2": "CN",
        "type": "city",
        "id": 39925,
        "population": 4512762
      },
      "geometry": {
        "type": "Point",
        "coordinates": [
          119.9181228,
          32.4585613
        ]
      }
    },
    {
      "type": "Feature",
      "properties": {
        "ogc_fid": 45071,
        "name": "淮南市",
        "country": "China",
        "iso_a2": "CN",
        "type": "city",
        "id": 39932,
        "population": 3033528
      },
      "geometry": {
        "type": "Point",
        "coordinates": [
          117.0130019,
          32.5866826
        ]
      }
    },
    {
      "type": "Feature",
      "properties": {
        "ogc_fid": 45084,
        "name": "连云港市",
        "country": "China",
        "iso_a2": "CN",
        "type": "city",
        "id": 39945,
        "population": 4393914
      },
      "geometry": {
        "type": "Point",
        "coordinates": [
          119.215813,
          34.5978596
        ]
      }
    },
    {
      "type": "Feature",
      "properties": {
        "ogc_fid": 45093,
        "name": "宿迁市",
        "country": "China",
        "iso_a2": "CN",
        "type": "city",
        "id": 39954,
        "population": 4715553
      },
      "geometry": {
        "type": "Point",
        "coordinates": [
          118.269719200000011,
          33.9646533
        ]
      }
    },
    {
      "type": "Feature",
      "properties": {
        "ogc_fid": 45095,
        "name": "揭阳市",
        "country": "China",
        "iso_a2": "CN",
        "type": "city",
        "id": 39956,
        "population": 5877025
      },
      "geometry": {
        "type": "Point",
        "coordinates": [
          116.368035400000011,
          23.553156
        ]
      }
    },
    {
      "type": "Feature",
      "properties": {
        "ogc_fid": 45097,
        "name": "巴彦淖尔市",
        "country": "China",
        "iso_a2": "CN",
        "type": "city",
        "id": 39958,
        "population": 1669915
      },
      "geometry": {
        "type": "Point",
        "coordinates": [
          107.3819572,
          40.7419202
        ]
      }
    },
    {
      "type": "Feature",
      "properties": {
        "ogc_fid": 45107,
        "name": "珠海市",
        "country": "China",
        "iso_a2": "CN",
        "type": "city",
        "id": 39968,
        "population": 1675300
      },
      "geometry": {
        "type": "Point",
        "coordinates": [
          113.572132700000012,
          22.273734
        ]
      }
    },
    {
      "type": "Feature",
      "properties": {
        "ogc_fid": 45108,
        "name": "枣庄市",
        "country": "China",
        "iso_a2": "CN",
        "type": "city",
        "id": 39969,
        "population": 2125000
      },
      "geometry": {
        "type": "Point",
        "coordinates": [
          117.3178278,
          34.8113006
        ]
      }
    },
    {
      "type": "Feature",
      "properties": {
        "ogc_fid": 45109,
        "name": "徐州市",
        "country": "China",
        "iso_a2": "CN",
        "type": "city",
        "id": 39970,
        "population": 8825600
      },
      "geometry": {
        "type": "Point",
        "coordinates": [
          117.278286,
          34.2066591
        ]
      }
    },
    {
      "type": "Feature",
      "properties": {
        "ogc_fid": 45128,
        "name": "阳江市",
        "country": "China",
        "iso_a2": "CN",
        "type": "city",
        "id": 39989,
        "population": 2421812
      },
      "geometry": {
        "type": "Point",
        "coordinates": [
          111.977677300000011,
          21.8603337
        ]
      }
    },
    {
      "type": "Feature",
      "properties": {
        "ogc_fid": 45150,
        "name": "江门市",
        "country": "China",
        "iso_a2": "CN",
        "type": "city",
        "id": 40013,
        "population": 4448871
      },
      "geometry": {
        "type": "Point",
        "coordinates": [
          113.0761073,
          22.5816619
        ]
      }
    },
    {
      "type": "Feature",
      "properties": {
        "ogc_fid": 45151,
        "name": "漳州市",
        "country": "China",
        "iso_a2": "CN",
        "type": "city",
        "id": 40014,
        "population": 4809983
      },
      "geometry": {
        "type": "Point",
        "coordinates": [
          117.642489500000011,
          24.5164639
        ]
      }
    },
    {
      "type": "Feature",
      "properties": {
        "ogc_fid": 45153,
        "name": "黄山市",
        "country": "China",
        "iso_a2": "CN",
        "type": "city",
        "id": 40016,
        "population": 1330565
      },
      "geometry": {
        "type": "Point",
        "coordinates": [
          118.33248110000001,
          29.7172627
        ]
      }
    },
    {
      "type": "Feature",
      "properties": {
        "ogc_fid": 45159,
        "name": "景德镇市",
        "country": "China",
        "iso_a2": "CN",
        "type": "city",
        "id": 40022,
        "population": 1587477
      },
      "geometry": {
        "type": "Point",
        "coordinates": [
          117.1727822,
          29.2712774
        ]
      }
    },
    {
      "type": "Feature",
      "properties": {
        "ogc_fid": 45164,
        "name": "三明市",
        "country": "China",
        "iso_a2": "CN",
        "type": "city",
        "id": 40027,
        "population": 2530000
      },
      "geometry": {
        "type": "Point",
        "coordinates": [
          117.634008,
          26.2671531
        ]
      }
    },
    {
      "type": "Feature",
      "properties": {
        "ogc_fid": 45173,
        "name": "莆田市",
        "country": "China",
        "iso_a2": "CN",
        "type": "city",
        "id": 40036,
        "population": 1954000
      },
      "geometry": {
        "type": "Point",
        "coordinates": [
          119.0029034,
          25.4557366
        ]
      }
    },
    {
      "type": "Feature",
      "properties": {
        "ogc_fid": 45175,
        "name": "昆明市",
        "country": "China",
        "iso_a2": "CN",
        "type": "city",
        "id": 40038,
        "population": 3583000
      },
      "geometry": {
        "type": "Point",
        "coordinates": [
          102.8324209,
          24.8843019
        ]
      }
    },
    {
      "type": "Feature",
      "properties": {
        "ogc_fid": 45178,
        "name": "鞍山市",
        "country": "China",
        "iso_a2": "CN",
        "type": "city",
        "id": 40041,
        "population": 1544000
      },
      "geometry": {
        "type": "Point",
        "coordinates": [
          122.9902689,
          41.1075276
        ]
      }
    },
    {
      "type": "Feature",
      "properties": {
        "ogc_fid": 45180,
        "name": "阜新市",
        "country": "China",
        "iso_a2": "CN",
        "type": "city",
        "id": 40043,
        "population": 1819339
      },
      "geometry": {
        "type": "Point",
        "coordinates": [
          121.6452868,
          42.0151733
        ]
      }
    },
    {
      "type": "Feature",
      "properties": {
        "ogc_fid": 45181,
        "name": "赤峰市",
        "country": "China",
        "iso_a2": "CN",
        "type": "city",
        "id": 40044,
        "population": 1334000
      },
      "geometry": {
        "type": "Point",
        "coordinates": [
          118.9426131,
          42.2799929
        ]
      }
    },
    {
      "type": "Feature",
      "properties": {
        "ogc_fid": 45183,
        "name": "锦州市",
        "country": "China",
        "iso_a2": "CN",
        "type": "city",
        "id": 40046,
        "population": 3126463
      },
      "geometry": {
        "type": "Point",
        "coordinates": [
          121.1194219,
          41.108528
        ]
      }
    },
    {
      "type": "Feature",
      "properties": {
        "ogc_fid": 45189,
        "name": "濮阳市",
        "country": "China",
        "iso_a2": "CN",
        "type": "city",
        "id": 40052,
        "population": 3598494
      },
      "geometry": {
        "type": "Point",
        "coordinates": [
          115.023407100000014,
          35.7631348
        ]
      }
    },
    {
      "type": "Feature",
      "properties": {
        "ogc_fid": 45192,
        "name": "北京市",
        "country": "China",
        "iso_a2": "CN",
        "type": "city",
        "id": 40055,
        "population": 21893095
      },
      "geometry": {
        "type": "Point",
        "coordinates": [
          116.3912757,
          39.906217
        ]
      }
    },
    {
      "type": "Feature",
      "properties": {
        "ogc_fid": 45193,
        "name": "张家界市",
        "country": "China",
        "iso_a2": "CN",
        "type": "city",
        "id": 40056,
        "population": 1476521
      },
      "geometry": {
        "type": "Point",
        "coordinates": [
          110.47414280000001,
          29.1176794
        ]
      }
    },
    {
      "type": "Feature",
      "properties": {
        "ogc_fid": 45195,
        "name": "漯河市",
        "country": "China",
        "iso_a2": "CN",
        "type": "city",
        "id": 40058,
        "population": 1500000
      },
      "geometry": {
        "type": "Point",
        "coordinates": [
          114.0287201,
          33.5711704
        ]
      }
    },
    {
      "type": "Feature",
      "properties": {
        "ogc_fid": 45201,
        "name": "运城市",
        "country": "China",
        "iso_a2": "CN",
        "type": "city",
        "id": 40064,
        "population": 5300000
      },
      "geometry": {
        "type": "Point",
        "coordinates": [
          111.002141,
          35.027637
        ]
      }
    },
    {
      "type": "Feature",
      "properties": {
        "ogc_fid": 45202,
        "name": "吕梁市",
        "country": "China",
        "iso_a2": "CN",
        "type": "city",
        "id": 40065,
        "population": 3727057
      },
      "geometry": {
        "type": "Point",
        "coordinates": [
          111.138220100000012,
          37.5180245
        ]
      }
    },
    {
      "type": "Feature",
      "properties": {
        "ogc_fid": 45205,
        "name": "涧西区",
        "country": "China",
        "iso_a2": "CN",
        "type": "city",
        "id": 40068,
        "population": 1119000
      },
      "geometry": {
        "type": "Point",
        "coordinates": [
          112.3893731,
          34.6589228
        ]
      }
    },
    {
      "type": "Feature",
      "properties": {
        "ogc_fid": 45210,
        "name": "安阳市",
        "country": "China",
        "iso_a2": "CN",
        "type": "city",
        "id": 40073,
        "population": 1147000
      },
      "geometry": {
        "type": "Point",
        "coordinates": [
          114.33633,
          36.1023552
        ]
      }
    },
    {
      "type": "Feature",
      "properties": {
        "ogc_fid": 45217,
        "name": "九江市",
        "country": "China",
        "iso_a2": "CN",
        "type": "city",
        "id": 40081,
        "population": 4728778
      },
      "geometry": {
        "type": "Point",
        "coordinates": [
          115.9474861,
          29.6653828
        ]
      }
    },
    {
      "type": "Feature",
      "properties": {
        "ogc_fid": 45218,
        "name": "大同市",
        "country": "China",
        "iso_a2": "CN",
        "type": "city",
        "id": 40083,
        "population": 3318057
      },
      "geometry": {
        "type": "Point",
        "coordinates": [
          113.2951122,
          40.0919817
        ]
      }
    },
    {
      "type": "Feature",
      "properties": {
        "ogc_fid": 45219,
        "name": "沈阳市",
        "country": "China",
        "iso_a2": "CN",
        "type": "city",
        "id": 40084,
        "population": 7760000
      },
      "geometry": {
        "type": "Point",
        "coordinates": [
          123.458674,
          41.6749893
        ]
      }
    },
    {
      "type": "Feature",
      "properties": {
        "ogc_fid": 45224,
        "name": "邯郸市",
        "country": "China",
        "iso_a2": "CN",
        "type": "city",
        "id": 40089,
        "population": 9174679
      },
      "geometry": {
        "type": "Point",
        "coordinates": [
          114.483333,
          36.583333
        ]
      }
    },
    {
      "type": "Feature",
      "properties": {
        "ogc_fid": 45226,
        "name": "遵义市",
        "country": "China",
        "iso_a2": "CN",
        "type": "city",
        "id": 40091,
        "population": 6127009
      },
      "geometry": {
        "type": "Point",
        "coordinates": [
          106.9191408,
          27.7237996
        ]
      }
    },
    {
      "type": "Feature",
      "properties": {
        "ogc_fid": 45227,
        "name": "盘锦市",
        "country": "China",
        "iso_a2": "CN",
        "type": "city",
        "id": 40092,
        "population": 1392493
      },
      "geometry": {
        "type": "Point",
        "coordinates": [
          122.0655098,
          41.1169056
        ]
      }
    },
    {
      "type": "Feature",
      "properties": {
        "ogc_fid": 45228,
        "name": "萍乡市",
        "country": "China",
        "iso_a2": "CN",
        "type": "city",
        "id": 40093,
        "population": 1854515
      },
      "geometry": {
        "type": "Point",
        "coordinates": [
          113.883080600000014,
          27.6603206
        ]
      }
    },
    {
      "type": "Feature",
      "properties": {
        "ogc_fid": 45229,
        "name": "娄底市",
        "country": "China",
        "iso_a2": "CN",
        "type": "city",
        "id": 40094,
        "population": 3785627
      },
      "geometry": {
        "type": "Point",
        "coordinates": [
          111.9890658,
          27.6995215
        ]
      }
    },
    {
      "type": "Feature",
      "properties": {
        "ogc_fid": 45230,
        "name": "衡阳市",
        "country": "China",
        "iso_a2": "CN",
        "type": "city",
        "id": 40095,
        "population": 1135000
      },
      "geometry": {
        "type": "Point",
        "coordinates": [
          112.5665703,
          26.8971898
        ]
      }
    },
    {
      "type": "Feature",
      "properties": {
        "ogc_fid": 45231,
        "name": "怀化市",
        "country": "China",
        "iso_a2": "CN",
        "type": "city",
        "id": 40096,
        "population": 4741948
      },
      "geometry": {
        "type": "Point",
        "coordinates": [
          109.9972341,
          27.5713952
        ]
      }
    },
    {
      "type": "Feature",
      "properties": {
        "ogc_fid": 45232,
        "name": "毕节市",
        "country": "China",
        "iso_a2": "CN",
        "type": "city",
        "id": 40097,
        "population": 6536370
      },
      "geometry": {
        "type": "Point",
        "coordinates": [
          105.286599700000011,
          27.2858633
        ]
      }
    },
    {
      "type": "Feature",
      "properties": {
        "ogc_fid": 45233,
        "name": "邵阳市",
        "country": "China",
        "iso_a2": "CN",
        "type": "city",
        "id": 40098,
        "population": 7071741
      },
      "geometry": {
        "type": "Point",
        "coordinates": [
          111.4610712,
          27.2426563
        ]
      }
    },
    {
      "type": "Feature",
      "properties": {
        "ogc_fid": 45241,
        "name": "榆林市",
        "country": "China",
        "iso_a2": "CN",
        "type": "city",
        "id": 40106,
        "population": 3700000
      },
      "geometry": {
        "type": "Point",
        "coordinates": [
          109.7290619,
          38.2851657
        ]
      }
    },
    {
      "type": "Feature",
      "properties": {
        "ogc_fid": 45246,
        "name": "呼和浩特市",
        "country": "China",
        "iso_a2": "CN",
        "type": "city",
        "id": 40110,
        "population": 2866615
      },
      "geometry": {
        "type": "Point",
        "coordinates": [
          111.673078800000013,
          40.8337963
        ]
      }
    },
    {
      "type": "Feature",
      "properties": {
        "ogc_fid": 45249,
        "name": "包头市",
        "country": "China",
        "iso_a2": "CN",
        "type": "city",
        "id": 40113,
        "population": 2071000
      },
      "geometry": {
        "type": "Point",
        "coordinates": [
          109.8344586,
          40.6549157
        ]
      }
    },
    {
      "type": "Feature",
      "properties": {
        "ogc_fid": 45250,
        "name": "三门峡市",
        "country": "China",
        "iso_a2": "CN",
        "type": "city",
        "id": 40114,
        "population": 2233872
      },
      "geometry": {
        "type": "Point",
        "coordinates": [
          111.1908398,
          34.7678842
        ]
      }
    },
    {
      "type": "Feature",
      "properties": {
        "ogc_fid": 45251,
        "name": "永州市",
        "country": "China",
        "iso_a2": "CN",
        "type": "city",
        "id": 40115,
        "population": 5180235
      },
      "geometry": {
        "type": "Point",
        "coordinates": [
          111.60814950000001,
          26.423568
        ]
      }
    },
    {
      "type": "Feature",
      "properties": {
        "ogc_fid": 45252,
        "name": "宜昌市",
        "country": "China",
        "iso_a2": "CN",
        "type": "city",
        "id": 40117,
        "population": 4059686
      },
      "geometry": {
        "type": "Point",
        "coordinates": [
          111.280307400000012,
          30.694088
        ]
      }
    },
    {
      "type": "Feature",
      "properties": {
        "ogc_fid": 45253,
        "name": "聊城市",
        "country": "China",
        "iso_a2": "CN",
        "type": "city",
        "id": 40118,
        "population": 1230000
      },
      "geometry": {
        "type": "Point",
        "coordinates": [
          115.9642007,
          36.4441808
        ]
      }
    },
    {
      "type": "Feature",
      "properties": {
        "ogc_fid": 45264,
        "name": "泰安市",
        "country": "China",
        "iso_a2": "CN",
        "type": "city",
        "id": 40129,
        "population": 1736000
      },
      "geometry": {
        "type": "Point",
        "coordinates": [
          117.080931600000014,
          36.2002968
        ]
      }
    },
    {
      "type": "Feature",
      "properties": {
        "ogc_fid": 45267,
        "name": "阜阳市",
        "country": "China",
        "iso_a2": "CN",
        "type": "city",
        "id": 40132,
        "population": 8200264
      },
      "geometry": {
        "type": "Point",
        "coordinates": [
          115.8090001,
          32.8926763
        ]
      }
    },
    {
      "type": "Feature",
      "properties": {
        "ogc_fid": 45273,
        "name": "常德市",
        "country": "China",
        "iso_a2": "CN",
        "type": "city",
        "id": 40138,
        "population": 5717200
      },
      "geometry": {
        "type": "Point",
        "coordinates": [
          111.692872400000013,
          29.034552
        ]
      }
    },
    {
      "type": "Feature",
      "properties": {
        "ogc_fid": 45279,
        "name": "长春市",
        "country": "China",
        "iso_a2": "CN",
        "type": "city",
        "id": 40144,
        "population": 3530000
      },
      "geometry": {
        "type": "Point",
        "coordinates": [
          125.3171216,
          43.8130735
        ]
      }
    },
    {
      "type": "Feature",
      "properties": {
        "ogc_fid": 45294,
        "name": "玉林市",
        "country": "China",
        "iso_a2": "CN",
        "type": "city",
        "id": 40160,
        "population": 7241900
      },
      "geometry": {
        "type": "Point",
        "coordinates": [
          110.1765019,
          22.6570263
        ]
      }
    },
    {
      "type": "Feature",
      "properties": {
        "ogc_fid": 45297,
        "name": "绥化市",
        "country": "China",
        "iso_a2": "CN",
        "type": "city",
        "id": 40163,
        "population": 5416439
      },
      "geometry": {
        "type": "Point",
        "coordinates": [
          126.9607485,
          46.6520483
        ]
      }
    },
    {
      "type": "Feature",
      "properties": {
        "ogc_fid": 45300,
        "name": "埇桥区",
        "country": "China",
        "iso_a2": "CN",
        "type": "city",
        "id": 40166,
        "population": 1880900
      },
      "geometry": {
        "type": "Point",
        "coordinates": [
          116.9720556,
          33.6434399
        ]
      }
    },
    {
      "type": "Feature",
      "properties": {
        "ogc_fid": 45301,
        "name": "鄂尔多斯市",
        "country": "China",
        "iso_a2": "CN",
        "type": "city",
        "id": 40167,
        "population": 2055300
      },
      "geometry": {
        "type": "Point",
        "coordinates": [
          109.7763659,
          39.6081457
        ]
      }
    },
    {
      "type": "Feature",
      "properties": {
        "ogc_fid": 45302,
        "name": "湛江市",
        "country": "China",
        "iso_a2": "CN",
        "type": "city",
        "id": 40168,
        "population": 1612000
      },
      "geometry": {
        "type": "Point",
        "coordinates": [
          110.354831800000014,
          21.2737079
        ]
      }
    },
    {
      "type": "Feature",
      "properties": {
        "ogc_fid": 45310,
        "name": "玉州区",
        "country": "China",
        "iso_a2": "CN",
        "type": "city",
        "id": 40176,
        "population": 1056743
      },
      "geometry": {
        "type": "Point",
        "coordinates": [
          110.1461038,
          22.6315896
        ]
      }
    },
    {
      "type": "Feature",
      "properties": {
        "ogc_fid": 45312,
        "name": "伊春市",
        "country": "China",
        "iso_a2": "CN",
        "type": "city",
        "id": 40178,
        "population": 1148126
      },
      "geometry": {
        "type": "Point",
        "coordinates": [
          128.8785919,
          47.7231316
        ]
      }
    },
    {
      "type": "Feature",
      "properties": {
        "ogc_fid": 45317,
        "name": "桂林市",
        "country": "China",
        "iso_a2": "CN",
        "type": "city",
        "id": 40183,
        "population": 4931137
      },
      "geometry": {
        "type": "Point",
        "coordinates": [
          110.1750728,
          25.238704
        ]
      }
    },
    {
      "type": "Feature",
      "properties": {
        "ogc_fid": 45319,
        "name": "柳州市",
        "country": "China",
        "iso_a2": "CN",
        "type": "city",
        "id": 40186,
        "population": 4157934
      },
      "geometry": {
        "type": "Point",
        "coordinates": [
          109.423967600000012,
          24.3284746
        ]
      }
    },
    {
      "type": "Feature",
      "properties": {
        "ogc_fid": 45320,
        "name": "来宾市",
        "country": "China",
        "iso_a2": "CN",
        "type": "city",
        "id": 40187,
        "population": 2498200
      },
      "geometry": {
        "type": "Point",
        "coordinates": [
          109.2169807,
          23.7532648
        ]
      }
    },
    {
      "type": "Feature",
      "properties": {
        "ogc_fid": 45321,
        "name": "贵港市",
        "country": "China",
        "iso_a2": "CN",
        "type": "city",
        "id": 40188,
        "population": 4118800
      },
      "geometry": {
        "type": "Point",
        "coordinates": [
          109.5946193,
          23.1144539
        ]
      }
    },
    {
      "type": "Feature",
      "properties": {
        "ogc_fid": 45322,
        "name": "河池市",
        "country": "China",
        "iso_a2": "CN",
        "type": "city",
        "id": 40189,
        "population": 3991900
      },
      "geometry": {
        "type": "Point",
        "coordinates": [
          108.63252390000001,
          24.487992
        ]
      }
    },
    {
      "type": "Feature",
      "properties": {
        "ogc_fid": 45323,
        "name": "钦州市",
        "country": "China",
        "iso_a2": "CN",
        "type": "city",
        "id": 40190,
        "population": 3791100
      },
      "geometry": {
        "type": "Point",
        "coordinates": [
          108.620787,
          21.9647835
        ]
      }
    },
    {
      "type": "Feature",
      "properties": {
        "ogc_fid": 45328,
        "name": "通化市",
        "country": "China",
        "iso_a2": "CN",
        "type": "city",
        "id": 40196,
        "population": 2325242
      },
      "geometry": {
        "type": "Point",
        "coordinates": [
          125.917045500000015,
          41.7225544
        ]
      }
    },
    {
      "type": "Feature",
      "properties": {
        "ogc_fid": 45329,
        "name": "四平市",
        "country": "China",
        "iso_a2": "CN",
        "type": "city",
        "id": 40199,
        "population": 3386325
      },
      "geometry": {
        "type": "Point",
        "coordinates": [
          124.364739,
          43.1669821
        ]
      }
    },
    {
      "type": "Feature",
      "properties": {
        "ogc_fid": 45346,
        "name": "东莞市",
        "country": "China",
        "iso_a2": "CN",
        "type": "city",
        "id": 40217,
        "population": 8254100
      },
      "geometry": {
        "type": "Point",
        "coordinates": [
          113.745778800000011,
          23.0205969
        ]
      }
    },
    {
      "type": "Feature",
      "properties": {
        "ogc_fid": 45347,
        "name": "中山市",
        "country": "China",
        "iso_a2": "CN",
        "type": "city",
        "id": 40218,
        "population": 3209600
      },
      "geometry": {
        "type": "Point",
        "coordinates": [
          113.3870834,
          22.5196895
        ]
      }
    },
    {
      "type": "Feature",
      "properties": {
        "ogc_fid": 45348,
        "name": "广州市",
        "country": "China",
        "iso_a2": "CN",
        "type": "city",
        "id": 40219,
        "population": 14043500
      },
      "geometry": {
        "type": "Point",
        "coordinates": [
          113.25929450000001,
          23.1301964
        ]
      }
    },
    {
      "type": "Feature",
      "properties": {
        "ogc_fid": 45355,
        "name": "云浮市",
        "country": "China",
        "iso_a2": "CN",
        "type": "city",
        "id": 40225,
        "population": 2360128
      },
      "geometry": {
        "type": "Point",
        "coordinates": [
          112.03962460000001,
          22.9173703
        ]
      }
    },
    {
      "type": "Feature",
      "properties": {
        "ogc_fid": 45357,
        "name": "郴州市",
        "country": "China",
        "iso_a2": "CN",
        "type": "city",
        "id": 40227,
        "population": 4581778
      },
      "geometry": {
        "type": "Point",
        "coordinates": [
          113.0094337,
          25.7733598
        ]
      }
    },
    {
      "type": "Feature",
      "properties": {
        "ogc_fid": 45358,
        "name": "河源市",
        "country": "China",
        "iso_a2": "CN",
        "type": "city",
        "id": 40228,
        "population": 2953019
      },
      "geometry": {
        "type": "Point",
        "coordinates": [
          114.6954482,
          23.746777
        ]
      }
    },
    {
      "type": "Feature",
      "properties": {
        "ogc_fid": 45359,
        "name": "辽源市",
        "country": "China",
        "iso_a2": "CN",
        "type": "city",
        "id": 40229,
        "population": 1176645
      },
      "geometry": {
        "type": "Point",
        "coordinates": [
          125.137490500000013,
          42.8863846
        ]
      }
    },
    {
      "type": "Feature",
      "properties": {
        "ogc_fid": 45361,
        "name": "黄石市",
        "country": "China",
        "iso_a2": "CN",
        "type": "city",
        "id": 40231,
        "population": 2429318
      },
      "geometry": {
        "type": "Point",
        "coordinates": [
          115.033414400000012,
          30.2024971
        ]
      }
    },
    {
      "type": "Feature",
      "properties": {
        "ogc_fid": 45364,
        "name": "安庆市",
        "country": "China",
        "iso_a2": "CN",
        "type": "city",
        "id": 40234,
        "population": 4165284
      },
      "geometry": {
        "type": "Point",
        "coordinates": [
          117.051595600000013,
          30.5276161
        ]
      }
    },
    {
      "type": "Feature",
      "properties": {
        "ogc_fid": 45367,
        "name": "韶关市",
        "country": "China",
        "iso_a2": "CN",
        "type": "city",
        "id": 40237,
        "population": 2826612
      },
      "geometry": {
        "type": "Point",
        "coordinates": [
          113.592211600000013,
          24.8136095
        ]
      }
    },
    {
      "type": "Feature",
      "properties": {
        "ogc_fid": 45374,
        "name": "宿州市",
        "country": "China",
        "iso_a2": "CN",
        "type": "city",
        "id": 40244,
        "population": 5324476
      },
      "geometry": {
        "type": "Point",
        "coordinates": [
          116.958806200000012,
          33.6482366
        ]
      }
    },
    {
      "type": "Feature",
      "properties": {
        "ogc_fid": 45375,
        "name": "赣州市",
        "country": "China",
        "iso_a2": "CN",
        "type": "city",
        "id": 40245,
        "population": 2180000
      },
      "geometry": {
        "type": "Point",
        "coordinates": [
          114.9287362,
          25.8332103
        ]
      }
    },
    {
      "type": "Feature",
      "properties": {
        "ogc_fid": 45378,
        "name": "济宁市",
        "country": "China",
        "iso_a2": "CN",
        "type": "city",
        "id": 40248,
        "population": 1200000
      },
      "geometry": {
        "type": "Point",
        "coordinates": [
          116.5849266,
          35.4125047
        ]
      }
    },
    {
      "type": "Feature",
      "properties": {
        "ogc_fid": 45392,
        "name": "济南市",
        "country": "China",
        "iso_a2": "CN",
        "type": "city",
        "id": 40262,
        "population": 7132000
      },
      "geometry": {
        "type": "Point",
        "coordinates": [
          117.114004200000011,
          36.6507007
        ]
      }
    },
    {
      "type": "Feature",
      "properties": {
        "ogc_fid": 45400,
        "name": "肇庆市",
        "country": "China",
        "iso_a2": "CN",
        "type": "city",
        "id": 40270,
        "population": 3918085
      },
      "geometry": {
        "type": "Point",
        "coordinates": [
          112.459305300000011,
          23.0496201
        ]
      }
    },
    {
      "type": "Feature",
      "properties": {
        "ogc_fid": 45407,
        "name": "鄂州市",
        "country": "China",
        "iso_a2": "CN",
        "type": "city",
        "id": 40277,
        "population": 1082653
      },
      "geometry": {
        "type": "Point",
        "coordinates": [
          114.889898800000012,
          30.3925379
        ]
      }
    },
    {
      "type": "Feature",
      "properties": {
        "ogc_fid": 45411,
        "name": "清远市",
        "country": "China",
        "iso_a2": "CN",
        "type": "city",
        "id": 40280,
        "population": 3698394
      },
      "geometry": {
        "type": "Point",
        "coordinates": [
          113.05059940000001,
          23.6832984
        ]
      }
    },
    {
      "type": "Feature",
      "properties": {
        "ogc_fid": 45427,
        "name": "滨州市",
        "country": "China",
        "iso_a2": "CN",
        "type": "city",
        "id": 40296,
        "population": 3748500
      },
      "geometry": {
        "type": "Point",
        "coordinates": [
          117.9647262,
          37.3821206
        ]
      }
    },
    {
      "type": "Feature",
      "properties": {
        "ogc_fid": 45488,
        "name": "淮安市",
        "country": "China",
        "iso_a2": "CN",
        "type": "city",
        "id": 40359,
        "population": 4799889
      },
      "geometry": {
        "type": "Point",
        "coordinates": [
          119.1075773,
          33.5524785
        ]
      }
    },
    {
      "type": "Feature",
      "properties": {
        "ogc_fid": 45493,
        "name": "茂名市",
        "country": "China",
        "iso_a2": "CN",
        "type": "city",
        "id": 40365,
        "population": 1217000
      },
      "geometry": {
        "type": "Point",
        "coordinates": [
          110.920951100000011,
          21.6656961
        ]
      }
    },
    {
      "type": "Feature",
      "properties": {
        "ogc_fid": 45505,
        "name": "潍坊市",
        "country": "China",
        "iso_a2": "CN",
        "type": "city",
        "id": 40378,
        "population": 9277200
      },
      "geometry": {
        "type": "Point",
        "coordinates": [
          119.1557441,
          36.7071591
        ]
      }
    },
    {
      "type": "Feature",
      "properties": {
        "ogc_fid": 45507,
        "name": "张店区",
        "country": "China",
        "iso_a2": "CN",
        "type": "city",
        "id": 40380,
        "population": 1020000
      },
      "geometry": {
        "type": "Point",
        "coordinates": [
          118.011882,
          36.8062069
        ]
      }
    },
    {
      "type": "Feature",
      "properties": {
        "ogc_fid": 45508,
        "name": "德州市",
        "country": "China",
        "iso_a2": "CN",
        "type": "city",
        "id": 40382,
        "population": 5568200
      },
      "geometry": {
        "type": "Point",
        "coordinates": [
          116.3535001,
          37.4363849
        ]
      }
    },
    {
      "type": "Feature",
      "properties": {
        "ogc_fid": 45509,
        "name": "青岛市",
        "country": "China",
        "iso_a2": "CN",
        "type": "city",
        "id": 40383,
        "population": 6188100
      },
      "geometry": {
        "type": "Point",
        "coordinates": [
          120.378137200000012,
          36.0638034
        ]
      }
    },
    {
      "type": "Feature",
      "properties": {
        "ogc_fid": 45511,
        "name": "东营市",
        "country": "China",
        "iso_a2": "CN",
        "type": "city",
        "id": 40385,
        "population": 2035300
      },
      "geometry": {
        "type": "Point",
        "coordinates": [
          118.668934900000011,
          37.4334738
        ]
      }
    },
    {
      "type": "Feature",
      "properties": {
        "ogc_fid": 45514,
        "name": "淄博市",
        "country": "China",
        "iso_a2": "CN",
        "type": "city",
        "id": 40388,
        "population": 2981000
      },
      "geometry": {
        "type": "Point",
        "coordinates": [
          117.980675,
          36.819626
        ]
      }
    },
    {
      "type": "Feature",
      "properties": {
        "ogc_fid": 45515,
        "name": "烟台市",
        "country": "China",
        "iso_a2": "CN",
        "type": "city",
        "id": 40389,
        "population": 1871000
      },
      "geometry": {
        "type": "Point",
        "coordinates": [
          121.4425255,
          37.461928
        ]
      }
    },
    {
      "type": "Feature",
      "properties": {
        "ogc_fid": 45517,
        "name": "威海市",
        "country": "China",
        "iso_a2": "CN",
        "type": "city",
        "id": 40391,
        "population": 2804800
      },
      "geometry": {
        "type": "Point",
        "coordinates": [
          122.115259900000012,
          37.5120997
        ]
      }
    },
    {
      "type": "Feature",
      "properties": {
        "ogc_fid": 45524,
        "name": "哈尔滨市",
        "country": "China",
        "iso_a2": "CN",
        "type": "city",
        "id": 40398,
        "population": 3173692
      },
      "geometry": {
        "type": "Point",
        "coordinates": [
          126.5303997,
          45.7988273
        ]
      }
    },
    {
      "type": "Feature",
      "properties": {
        "ogc_fid": 45529,
        "name": "鸡西市",
        "country": "China",
        "iso_a2": "CN",
        "type": "city",
        "id": 40403,
        "population": 1892206
      },
      "geometry": {
        "type": "Point",
        "coordinates": [
          130.961925900000011,
          45.2928513
        ]
      }
    },
    {
      "type": "Feature",
      "properties": {
        "ogc_fid": 45553,
        "name": "临沂市",
        "country": "China",
        "iso_a2": "CN",
        "type": "city",
        "id": 40427,
        "population": 2710000
      },
      "geometry": {
        "type": "Point",
        "coordinates": [
          118.3506988,
          35.1032403
        ]
      }
    },
    {
      "type": "Feature",
      "properties": {
        "ogc_fid": 45559,
        "name": "绵阳市",
        "country": "China",
        "iso_a2": "CN",
        "type": "city",
        "id": 40433,
        "population": 4868243
      },
      "geometry": {
        "type": "Point",
        "coordinates": [
          104.746343200000013,
          31.4627341
        ]
      }
    },
    {
      "type": "Feature",
      "properties": {
        "ogc_fid": 45566,
        "name": "福清市",
        "country": "China",
        "iso_a2": "CN",
        "type": "city",
        "id": 40440,
        "population": 1390487
      },
      "geometry": {
        "type": "Point",
        "coordinates": [
          119.379537700000014,
          25.7237321
        ]
      }
    },
    {
      "type": "Feature",
      "properties": {
        "ogc_fid": 45571,
        "name": "福州市",
        "country": "China",
        "iso_a2": "CN",
        "type": "city",
        "id": 40445,
        "population": 8291268
      },
      "geometry": {
        "type": "Point",
        "coordinates": [
          119.291821500000012,
          26.0774954
        ]
      }
    },
    {
      "type": "Feature",
      "properties": {
        "ogc_fid": 45573,
        "name": "宁德市",
        "country": "China",
        "iso_a2": "CN",
        "type": "city",
        "id": 40447,
        "population": 2870000
      },
      "geometry": {
        "type": "Point",
        "coordinates": [
          119.5432715,
          26.6695006
        ]
      }
    },
    {
      "type": "Feature",
      "properties": {
        "ogc_fid": 45574,
        "name": "巴中市",
        "country": "China",
        "iso_a2": "CN",
        "type": "city",
        "id": 40448,
        "population": 2712894
      },
      "geometry": {
        "type": "Point",
        "coordinates": [
          106.7416618,
          31.8689322
        ]
      }
    },
    {
      "type": "Feature",
      "properties": {
        "ogc_fid": 45575,
        "name": "自贡市",
        "country": "China",
        "iso_a2": "CN",
        "type": "city",
        "id": 40449,
        "population": 2489256
      },
      "geometry": {
        "type": "Point",
        "coordinates": [
          104.7761224,
          29.3419256
        ]
      }
    },
    {
      "type": "Feature",
      "properties": {
        "ogc_fid": 45580,
        "name": "龙岩市",
        "country": "China",
        "iso_a2": "CN",
        "type": "city",
        "id": 40454,
        "population": 2559545
      },
      "geometry": {
        "type": "Point",
        "coordinates": [
          117.012348300000014,
          25.0767425
        ]
      }
    },
    {
      "type": "Feature",
      "properties": {
        "ogc_fid": 45582,
        "name": "六盘水市",
        "country": "China",
        "iso_a2": "CN",
        "type": "city",
        "id": 40456,
        "population": 2851180
      },
      "geometry": {
        "type": "Point",
        "coordinates": [
          104.8279652,
          26.5963778
        ]
      }
    },
    {
      "type": "Feature",
      "properties": {
        "ogc_fid": 45585,
        "name": "鹰潭市",
        "country": "China",
        "iso_a2": "CN",
        "type": "city",
        "id": 40459,
        "population": 1125156
      },
      "geometry": {
        "type": "Point",
        "coordinates": [
          117.034423,
          28.2741176
        ]
      }
    },
    {
      "type": "Feature",
      "properties": {
        "ogc_fid": 45597,
        "name": "蜀山区",
        "country": "China",
        "iso_a2": "CN",
        "type": "city",
        "id": 40472,
        "population": 1238000
      },
      "geometry": {
        "type": "Point",
        "coordinates": [
          117.25501770000001,
          31.8531187
        ]
      }
    },
    {
      "type": "Feature",
      "properties": {
        "ogc_fid": 45609,
        "name": "蚌埠市",
        "country": "China",
        "iso_a2": "CN",
        "type": "city",
        "id": 40484,
        "population": 3296408
      },
      "geometry": {
        "type": "Point",
        "coordinates": [
          117.3825673,
          32.9176422
        ]
      }
    },
    {
      "type": "Feature",
      "properties": {
        "ogc_fid": 45620,
        "name": "儋州市",
        "country": "China",
        "iso_a2": "CN",
        "type": "city",
        "id": 40495,
        "population": 1040000
      },
      "geometry": {
        "type": "Point",
        "coordinates": [
          109.5697188,
          19.5173795
        ]
      }
    },
    {
      "type": "Feature",
      "properties": {
        "ogc_fid": 45626,
        "name": "贵阳市",
        "country": "China",
        "iso_a2": "CN",
        "type": "city",
        "id": 40501,
        "population": 4324561
      },
      "geometry": {
        "type": "Point",
        "coordinates": [
          106.62461780000001,
          26.6499922
        ]
      }
    },
    {
      "type": "Feature",
      "properties": {
        "ogc_fid": 45631,
        "name": "乐山市",
        "country": "China",
        "iso_a2": "CN",
        "type": "city",
        "id": 40506,
        "population": 3160168
      },
      "geometry": {
        "type": "Point",
        "coordinates": [
          103.747791,
          29.5851296
        ]
      }
    },
    {
      "type": "Feature",
      "properties": {
        "ogc_fid": 45633,
        "name": "泸州市",
        "country": "China",
        "iso_a2": "CN",
        "type": "city",
        "id": 40508,
        "population": 4254149
      },
      "geometry": {
        "type": "Point",
        "coordinates": [
          105.4385063,
          28.8744722
        ]
      }
    },
    {
      "type": "Feature",
      "properties": {
        "ogc_fid": 45634,
        "name": "南充市",
        "country": "China",
        "iso_a2": "CN",
        "type": "city",
        "id": 40509,
        "population": 5607565
      },
      "geometry": {
        "type": "Point",
        "coordinates": [
          106.1066076,
          30.8401171
        ]
      }
    },
    {
      "type": "Feature",
      "properties": {
        "ogc_fid": 45639,
        "name": "广安市",
        "country": "China",
        "iso_a2": "CN",
        "type": "city",
        "id": 40514,
        "population": 3254883
      },
      "geometry": {
        "type": "Point",
        "coordinates": [
          106.6286646,
          30.4593051
        ]
      }
    },
    {
      "type": "Feature",
      "properties": {
        "ogc_fid": 45641,
        "name": "成都市",
        "country": "China",
        "iso_a2": "CN",
        "type": "city",
        "id": 40516,
        "population": 20937757
      },
      "geometry": {
        "type": "Point",
        "coordinates": [
          104.0633717,
          30.6598628
        ]
      }
    },
    {
      "type": "Feature",
      "properties": {
        "ogc_fid": 45642,
        "name": "遂宁市",
        "country": "China",
        "iso_a2": "CN",
        "type": "city",
        "id": 40517,
        "population": 2814196
      },
      "geometry": {
        "type": "Point",
        "coordinates": [
          105.574542,
          30.5061493
        ]
      }
    },
    {
      "type": "Feature",
      "properties": {
        "ogc_fid": 45644,
        "name": "广元市",
        "country": "China",
        "iso_a2": "CN",
        "type": "city",
        "id": 40519,
        "population": 2305657
      },
      "geometry": {
        "type": "Point",
        "coordinates": [
          105.8563402,
          32.4329637
        ]
      }
    },
    {
      "type": "Feature",
      "properties": {
        "ogc_fid": 45645,
        "name": "资阳市",
        "country": "China",
        "iso_a2": "CN",
        "type": "city",
        "id": 40520,
        "population": 2308631
      },
      "geometry": {
        "type": "Point",
        "coordinates": [
          104.6477717,
          30.1236535
        ]
      }
    },
    {
      "type": "Feature",
      "properties": {
        "ogc_fid": 45646,
        "name": "内江市",
        "country": "China",
        "iso_a2": "CN",
        "type": "city",
        "id": 40521,
        "population": 3140678
      },
      "geometry": {
        "type": "Point",
        "coordinates": [
          105.054457500000012,
          29.5827203
        ]
      }
    },
    {
      "type": "Feature",
      "properties": {
        "ogc_fid": 45652,
        "name": "达州市",
        "country": "China",
        "iso_a2": "CN",
        "type": "city",
        "id": 40527,
        "population": 5385422
      },
      "geometry": {
        "type": "Point",
        "coordinates": [
          107.50275640000001,
          31.216036
        ]
      }
    },
    {
      "type": "Feature",
      "properties": {
        "ogc_fid": 45653,
        "name": "德阳市",
        "country": "China",
        "iso_a2": "CN",
        "type": "city",
        "id": 40528,
        "population": 3456161
      },
      "geometry": {
        "type": "Point",
        "coordinates": [
          104.39013,
          31.1244028
        ]
      }
    },
    {
      "type": "Feature",
      "properties": {
        "ogc_fid": 45654,
        "name": "重庆市",
        "country": "China",
        "iso_a2": "CN",
        "type": "city",
        "id": 40529,
        "population": 18400000
      },
      "geometry": {
        "type": "Point",
        "coordinates": [
          106.5478767,
          29.5647398
        ]
      }
    },
    {
      "type": "Feature",
      "properties": {
        "ogc_fid": 45656,
        "name": "宜宾市",
        "country": "China",
        "iso_a2": "CN",
        "type": "city",
        "id": 40531,
        "population": 4588804
      },
      "geometry": {
        "type": "Point",
        "coordinates": [
          104.6289601,
          28.7701941
        ]
      }
    },
    {
      "type": "Feature",
      "properties": {
        "ogc_fid": 45667,
        "name": "鹤壁市",
        "country": "China",
        "iso_a2": "CN",
        "type": "city",
        "id": 40542,
        "population": 1569100
      },
      "geometry": {
        "type": "Point",
        "coordinates": [
          114.2915957,
          35.7479577
        ]
      }
    },
    {
      "type": "Feature",
      "properties": {
        "ogc_fid": 45676,
        "name": "双鸭山市",
        "country": "China",
        "iso_a2": "CN",
        "type": "city",
        "id": 40551,
        "population": 1208803
      },
      "geometry": {
        "type": "Point",
        "coordinates": [
          131.1548641,
          46.6476235
        ]
      }
    },
    {
      "type": "Feature",
      "properties": {
        "ogc_fid": 45677,
        "name": "梧州市",
        "country": "China",
        "iso_a2": "CN",
        "type": "city",
        "id": 40552,
        "population": 2820977
      },
      "geometry": {
        "type": "Point",
        "coordinates": [
          111.277099,
          23.478767
        ]
      }
    },
    {
      "type": "Feature",
      "properties": {
        "ogc_fid": 45682,
        "name": "许昌市",
        "country": "China",
        "iso_a2": "CN",
        "type": "city",
        "id": 40557,
        "population": 4307199
      },
      "geometry": {
        "type": "Point",
        "coordinates": [
          113.8225908,
          34.0457133
        ]
      }
    },
    {
      "type": "Feature",
      "properties": {
        "ogc_fid": 45683,
        "name": "辽阳市",
        "country": "China",
        "iso_a2": "CN",
        "type": "city",
        "id": 40558,
        "population": 1846000
      },
      "geometry": {
        "type": "Point",
        "coordinates": [
          123.1693463,
          41.273887
        ]
      }
    },
    {
      "type": "Feature",
      "properties": {
        "ogc_fid": 45686,
        "name": "南阳市",
        "country": "China",
        "iso_a2": "CN",
        "type": "city",
        "id": 40561,
        "population": 1800000
      },
      "geometry": {
        "type": "Point",
        "coordinates": [
          112.52926930000001,
          33.0010496
        ]
      }
    },
    {
      "type": "Feature",
      "properties": {
        "ogc_fid": 45696,
        "name": "晋城市",
        "country": "China",
        "iso_a2": "CN",
        "type": "city",
        "id": 40571,
        "population": 2308900
      },
      "geometry": {
        "type": "Point",
        "coordinates": [
          112.851986200000013,
          35.493783
        ]
      }
    },
    {
      "type": "Feature",
      "properties": {
        "ogc_fid": 45703,
        "name": "天津市",
        "country": "China",
        "iso_a2": "CN",
        "type": "city",
        "id": 40579,
        "population": 15500000
      },
      "geometry": {
        "type": "Point",
        "coordinates": [
          117.1951073,
          39.0856735
        ]
      }
    },
    {
      "type": "Feature",
      "properties": {
        "ogc_fid": 45714,
        "name": "杭州市",
        "country": "China",
        "iso_a2": "CN",
        "type": "city",
        "id": 40590,
        "population": 10360000
      },
      "geometry": {
        "type": "Point",
        "coordinates": [
          120.2052342,
          30.2489634
        ]
      }
    },
    {
      "type": "Feature",
      "properties": {
        "ogc_fid": 45718,
        "name": "葫芦岛市",
        "country": "China",
        "iso_a2": "CN",
        "type": "city",
        "id": 40594,
        "population": 2623541
      },
      "geometry": {
        "type": "Point",
        "coordinates": [
          120.8404789,
          40.7515443
        ]
      }
    },
    {
      "type": "Feature",
      "properties": {
        "ogc_fid": 45721,
        "name": "秦皇岛市",
        "country": "China",
        "iso_a2": "CN",
        "type": "city",
        "id": 40597,
        "population": 2987605
      },
      "geometry": {
        "type": "Point",
        "coordinates": [
          119.589412900000013,
          39.9395724
        ]
      }
    },
    {
      "type": "Feature",
      "properties": {
        "ogc_fid": 45722,
        "name": "铜仁市",
        "country": "China",
        "iso_a2": "CN",
        "type": "city",
        "id": 40598,
        "population": 4270000
      },
      "geometry": {
        "type": "Point",
        "coordinates": [
          109.185208100000011,
          27.7347312
        ]
      }
    },
    {
      "type": "Feature",
      "properties": {
        "ogc_fid": 45724,
        "name": "丹东市",
        "country": "China",
        "iso_a2": "CN",
        "type": "city",
        "id": 40600,
        "population": 2444697
      },
      "geometry": {
        "type": "Point",
        "coordinates": [
          124.3863404,
          40.128668
        ]
      }
    },
    {
      "type": "Feature",
      "properties": {
        "ogc_fid": 45725,
        "name": "张家口市",
        "country": "China",
        "iso_a2": "CN",
        "type": "city",
        "id": 40601,
        "population": 4345491
      },
      "geometry": {
        "type": "Point",
        "coordinates": [
          114.880567,
          40.8228016
        ]
      }
    },
    {
      "type": "Feature",
      "properties": {
        "ogc_fid": 45727,
        "name": "本溪市",
        "country": "China",
        "iso_a2": "CN",
        "type": "city",
        "id": 40603,
        "population": 1546000
      },
      "geometry": {
        "type": "Point",
        "coordinates": [
          123.7646562,
          41.297577
        ]
      }
    },
    {
      "type": "Feature",
      "properties": {
        "ogc_fid": 45728,
        "name": "开封市",
        "country": "China",
        "iso_a2": "CN",
        "type": "city",
        "id": 40604,
        "population": 4676159
      },
      "geometry": {
        "type": "Point",
        "coordinates": [
          114.3472038,
          34.7961106
        ]
      }
    },
    {
      "type": "Feature",
      "properties": {
        "ogc_fid": 45729,
        "name": "抚顺市",
        "country": "China",
        "iso_a2": "CN",
        "type": "city",
        "id": 40605,
        "population": 1357000
      },
      "geometry": {
        "type": "Point",
        "coordinates": [
          123.924157,
          41.8692972
        ]
      }
    },
    {
      "type": "Feature",
      "properties": {
        "ogc_fid": 45738,
        "name": "兰州市",
        "country": "China",
        "iso_a2": "CN",
        "type": "city",
        "id": 40614,
        "population": 3688400
      },
      "geometry": {
        "type": "Point",
        "coordinates": [
          103.8318566,
          36.0620781
        ]
      }
    },
    {
      "type": "Feature",
      "properties": {
        "ogc_fid": 45742,
        "name": "定西市",
        "country": "China",
        "iso_a2": "CN",
        "type": "city",
        "id": 40618,
        "population": 2777300
      },
      "geometry": {
        "type": "Point",
        "coordinates": [
          104.6229826,
          35.5810207
        ]
      }
    },
    {
      "type": "Feature",
      "properties": {
        "ogc_fid": 45743,
        "name": "信阳市",
        "country": "China",
        "iso_a2": "CN",
        "type": "city",
        "id": 40619,
        "population": 1230000
      },
      "geometry": {
        "type": "Point",
        "coordinates": [
          114.0852134,
          32.1461721
        ]
      }
    },
    {
      "type": "Feature",
      "properties": {
        "ogc_fid": 45744,
        "name": "铜陵市",
        "country": "China",
        "iso_a2": "CN",
        "type": "city",
        "id": 40704,
        "population": 1311726
      },
      "geometry": {
        "type": "Point",
        "coordinates": [
          117.805068,
          30.9474585
        ]
      }
    },
    {
      "type": "Feature",
      "properties": {
        "ogc_fid": 45746,
        "name": "衡水市",
        "country": "China",
        "iso_a2": "CN",
        "type": "city",
        "id": 40621,
        "population": 4435400
      },
      "geometry": {
        "type": "Point",
        "coordinates": [
          115.6677229,
          37.7364305
        ]
      }
    },
    {
      "type": "Feature",
      "properties": {
        "ogc_fid": 45750,
        "name": "忻州市",
        "country": "China",
        "iso_a2": "CN",
        "type": "city",
        "id": 40625,
        "population": 3067501
      },
      "geometry": {
        "type": "Point",
        "coordinates": [
          112.730463,
          38.4139173
        ]
      }
    },
    {
      "type": "Feature",
      "properties": {
        "ogc_fid": 45752,
        "name": "石家庄市",
        "country": "China",
        "iso_a2": "CN",
        "type": "city",
        "id": 40627,
        "population": 10163788
      },
      "geometry": {
        "type": "Point",
        "coordinates": [
          114.50883850000001,
          38.0429742
        ]
      }
    },
    {
      "type": "Feature",
      "properties": {
        "ogc_fid": 45782,
        "name": "六安市",
        "country": "China",
        "iso_a2": "CN",
        "type": "city",
        "id": 40657,
        "population": 4393699
      },
      "geometry": {
        "type": "Point",
        "coordinates": [
          116.514225200000013,
          31.7383487
        ]
      }
    },
    {
      "type": "Feature",
      "properties": {
        "ogc_fid": 45784,
        "name": "裕安区",
        "country": "China",
        "iso_a2": "CN",
        "type": "city",
        "id": 40659,
        "population": 1002321
      },
      "geometry": {
        "type": "Point",
        "coordinates": [
          116.474528600000014,
          31.7401713
        ]
      }
    },
    {
      "type": "Feature",
      "properties": {
        "ogc_fid": 45802,
        "name": "吉安市",
        "country": "China",
        "iso_a2": "CN",
        "type": "city",
        "id": 40677,
        "population": 4810339
      },
      "geometry": {
        "type": "Point",
        "coordinates": [
          114.961355,
          27.0937349
        ]
      }
    },