{
"type": "FeatureCollection",
"name": "citiesWithPopOver1Million",
"crs": {
  "type": "name",
  "properties": {
    "name": "urn:ogc:def:crs:OGC:1.3:CRS84"
  }
},
"features": [
{
  "type": "Feature",
  "properties": {
    "ogc_fid": 607,
    "name": "Mesa",
    "iso_a2": "US",
    "population": 1085394
  },
  "geometry": {
    "type": "Point",
    "coordinates": [
      -111.820966964501793,
      33.414795714987406
    ]
  }
},
{
  "type": "Feature",
  "properties": {
    "ogc_fid": 863,
    "name": "Sharjah",
    "iso_a2": "AE",
    "population": 1103027
  },
  "geometry": {
    "type": "Point",
    "coordinates": [
      55.4064782,
      25.3713829
    ]
  }
},
{
  "type": "Feature",
  "properties": {
    "ogc_fid": 912,
    "name": "Changwon",
    "iso_a2": "KR",
    "population": 1081499
  },
  "geometry": {
    "type": "Point",
    "coordinates": [
      128.583562,
      35.2191022
    ]
  }
},
{
  "type": "Feature",
  "properties": {
    "ogc_fid": 917,
    "name": "Sheffield",
    "iso_a2": "GB",
    "population": 1292900
  },
  "geometry": {
    "type": "Point",
    "coordinates": [
      -1.4999966,
      53.3666767
    ]
  }
},
{
  "type": "Feature",
  "properties": {
    "ogc_fid": 1011,
    "name": "Abbottabad",
    "iso_a2": "PK",
    "population": 1183647
  },
  "geometry": {
    "type": "Point",
    "coordinates": [
      73.1995007,
      34.1495034
    ]
  }
},
{
  "type": "Feature",
  "properties": {
    "ogc_fid": 1159,
    "name": "Ciudad Nezahualcóyotl",
    "iso_a2": "MX",
    "population": 1109363
  },
  "geometry": {
    "type": "Point",
    "coordinates": [
      -99.0299866,
      19.4100155
    ]
  }
},
{
  "type": "Feature",
  "properties": {
    "ogc_fid": 1274,
    "name": "Duisburg",
    "iso_a2": "DE",
    "population": 1276757
  },
  "geometry": {
    "type": "Point",
    "coordinates": [
      6.7500166,
      51.4299732
    ]
  }
},
{
  "type": "Feature",
  "properties": {
    "ogc_fid": 1276,
    "name": "Essen",
    "iso_a2": "DE",
    "population": 1742135
  },
  "geometry": {
    "type": "Point",
    "coordinates": [
      7.0166154,
      51.4499978
    ]
  }
},
{
  "type": "Feature",
  "properties": {
    "ogc_fid": 1310,
    "name": "Zhucheng",
    "iso_a2": "CN",
    "population": 1060000
  },
  "geometry": {
    "type": "Point",
    "coordinates": [
      119.3800927,
      35.9899595
    ]
  }
},
{
  "type": "Feature",
  "properties": {
    "ogc_fid": 1344,
    "name": "Kawasaki",
    "iso_a2": "JP",
    "population": 1437266
  },
  "geometry": {
    "type": "Point",
    "coordinates": [
      139.705002,
      35.5299876
    ]
  }
},
{
  "type": "Feature",
  "properties": {
    "ogc_fid": 1368,
    "name": "Kalyan",
    "iso_a2": "IN",
    "population": 1576614
  },
  "geometry": {
    "type": "Point",
    "coordinates": [
      73.1601749,
      19.250232
    ]
  }
},
{
  "type": "Feature",
  "properties": {
    "ogc_fid": 1557,
    "name": "Niterói",
    "iso_a2": "BR",
    "population": 1500513
  },
  "geometry": {
    "type": "Point",
    "coordinates": [
      -43.10582636571889,
      -22.882533755689739
    ]
  }
},
{
  "type": "Feature",
  "properties": {
    "ogc_fid": 1799,
    "name": "Zhongli",
    "iso_a2": "TW",
    "population": 1632616
  },
  "geometry": {
    "type": "Point",
    "coordinates": [
      121.2167765,
      24.9650252
    ]
  }
},
{
  "type": "Feature",
  "properties": {
    "ogc_fid": 1863,
    "name": "Irvine",
    "iso_a2": "US",
    "population": 3010232
  },
  "geometry": {
    "type": "Point",
    "coordinates": [
      -117.8299502,
      33.6804106
    ]
  }
},
{
  "type": "Feature",
  "properties": {
    "ogc_fid": 2004,
    "name": "Fort Lauderdale",
    "iso_a2": "US",
    "population": 2042042
  },
  "geometry": {
    "type": "Point",
    "coordinates": [
      -80.1417855,
      26.1360649
    ]
  }
},
{
  "type": "Feature",
  "properties": {
    "ogc_fid": 2685,
    "name": "Dammam",
    "iso_a2": "SA",
    "population": 2054710
  },
  "geometry": {
    "type": "Point",
    "coordinates": [
      50.0977245,
      26.4301376
    ]
  }
},
{
  "type": "Feature",
  "properties": {
    "ogc_fid": 3039,
    "name": "Quezon City",
    "iso_a2": "PH",
    "population": 2761720
  },
  "geometry": {
    "type": "Point",
    "coordinates": [
      121.0299662,
      14.6504352
    ]
  }
},
{
  "type": "Feature",
  "properties": {
    "ogc_fid": 3160,
    "name": "Ikare",
    "iso_a2": "NG",
    "population": 1099931
  },
  "geometry": {
    "type": "Point",
    "coordinates": [
      5.7599996,
      7.5304305
    ]
  }
},
{
  "type": "Feature",
  "properties": {
    "ogc_fid": 3180,
    "name": "Toluca",
    "iso_a2": "MX",
    "population": 1531000
  },
  "geometry": {
    "type": "Point",
    "coordinates": [
      -99.653179285489685,
      19.28930795148478
    ]
  }
},
{
  "type": "Feature",
  "properties": {
    "ogc_fid": 3286,
    "name": "Katowice",
    "iso_a2": "PL",
    "population": 2746000
  },
  "geometry": {
    "type": "Point",
    "coordinates": [
      19.020017,
      50.2603805
    ]
  }
},
{
  "type": "Feature",
  "properties": {
    "ogc_fid": 3413,
    "name": "Hechi",
    "iso_a2": "CN",
    "population": 3830000
  },
  "geometry": {
    "type": "Point",
    "coordinates": [
      108.08299950401414,
      24.695252134251945
    ]
  }
},
{
  "type": "Feature",
  "properties": {
    "ogc_fid": 3420,
    "name": "Zhangzhou",
    "iso_a2": "CN",
    "population": 3531147
  },
  "geometry": {
    "type": "Point",
    "coordinates": [
      117.6700162,
      24.5203754
    ]
  }
},
{
  "type": "Feature",
  "properties": {
    "ogc_fid": 3428,
    "name": "Ma'anshan",
    "iso_a2": "CN",
    "population": 1366302
  },
  "geometry": {
    "type": "Point",
    "coordinates": [
      118.485148474062399,
      31.672563922240595
    ]
  }
},
{
  "type": "Feature",
  "properties": {
    "ogc_fid": 3437,
    "name": "Maoming",
    "iso_a2": "CN",
    "population": 1217715
  },
  "geometry": {
    "type": "Point",
    "coordinates": [
      110.8700179,
      21.9204049
    ]
  }
},
{
  "type": "Feature",
  "properties": {
    "ogc_fid": 3440,
    "name": "Cilacap",
    "iso_a2": "ID",
    "population": 1174964
  },
  "geometry": {
    "type": "Point",
    "coordinates": [
      109.0154024,
      -7.7188196
    ]
  }
},
{
  "type": "Feature",
  "properties": {
    "ogc_fid": 3446,
    "name": "Bekasi",
    "iso_a2": "ID",
    "population": 2378211
  },
  "geometry": {
    "type": "Point",
    "coordinates": [
      106.972323,
      -6.2172575
    ]
  }
},
{
  "type": "Feature",
  "properties": {
    "ogc_fid": 3608,
    "name": "Düsseldorf",
    "iso_a2": "DE",
    "population": 1220000
  },
  "geometry": {
    "type": "Point",
    "coordinates": [
      6.779989,
      51.2203736
    ]
  }
},
{
  "type": "Feature",
  "properties": {
    "ogc_fid": 3610,
    "name": "Mannheim",
    "iso_a2": "DE",
    "population": 2362000
  },
  "geometry": {
    "type": "Point",
    "coordinates": [
      8.470015,
      49.5003752
    ]
  }
},
{
  "type": "Feature",
  "properties": {
    "ogc_fid": 3667,
    "name": "Xiangtan",
    "iso_a2": "CN",
    "population": 2586948
  },
  "geometry": {
    "type": "Point",
    "coordinates": [
      112.9000232,
      27.8504305
    ]
  }
},
{
  "type": "Feature",
  "properties": {
    "ogc_fid": 3668,
    "name": "Zigong",
    "iso_a2": "CN",
    "population": 1105000
  },
  "geometry": {
    "type": "Point",
    "coordinates": [
      104.7780561,
      29.4019459
    ]
  }
},
{
  "type": "Feature",
  "properties": {
    "ogc_fid": 3678,
    "name": "Baoding",
    "iso_a2": "CN",
    "population": 1107000
  },
  "geometry": {
    "type": "Point",
    "coordinates": [
      115.468896503111083,
      38.858340260648113
    ]
  }
},
{
  "type": "Feature",
  "properties": {
    "ogc_fid": 3705,
    "name": "Shangrao",
    "iso_a2": "CN",
    "population": 1144577
  },
  "geometry": {
    "type": "Point",
    "coordinates": [
      117.9699979,
      28.4703927
    ]
  }
},
{
  "type": "Feature",
  "properties": {
    "ogc_fid": 3708,
    "name": "Shuyang",
    "iso_a2": "CN",
    "population": 1770000
  },
  "geometry": {
    "type": "Point",
    "coordinates": [
      118.7733597,
      34.1298664
    ]
  }
},
{
  "type": "Feature",
  "properties": {
    "ogc_fid": 3977,
    "name": "Haifa",
    "iso_a2": "IL",
    "population": 1011000
  },
  "geometry": {
    "type": "Point",
    "coordinates": [
      34.9780789,
      32.8223573
    ]
  }
},
{
  "type": "Feature",
  "properties": {
    "ogc_fid": 4048,
    "name": "Karaj",
    "iso_a2": "IR",
    "population": 1423000
  },
  "geometry": {
    "type": "Point",
    "coordinates": [
      50.968059,
      35.8023046
    ]
  }
},
{
  "type": "Feature",
  "properties": {
    "ogc_fid": 4098,
    "name": "Howrah",
    "iso_a2": "IN",
    "population": 4841638
  },
  "geometry": {
    "type": "Point",
    "coordinates": [
      88.318516416977971,
      22.584697601843814
    ]
  }
},
{
  "type": "Feature",
  "properties": {
    "ogc_fid": 4878,
    "name": "Long Beach",
    "iso_a2": "US",
    "population": 2036134
  },
  "geometry": {
    "type": "Point",
    "coordinates": [
      -118.200337356597061,
      33.777017673143163
    ]
  }
},
{
  "type": "Feature",
  "properties": {
    "ogc_fid": 4903,
    "name": "Barquisimeto",
    "iso_a2": "VE",
    "population": 1116000
  },
  "geometry": {
    "type": "Point",
    "coordinates": [
      -69.3019125,
      10.0519384
    ]
  }
},
{
  "type": "Feature",
  "properties": {
    "ogc_fid": 4905,
    "name": "Providence",
    "iso_a2": "US",
    "population": 1277000
  },
  "geometry": {
    "type": "Point",
    "coordinates": [
      -71.4169256,
      41.8230482
    ]
  }
},
{
  "type": "Feature",
  "properties": {
    "ogc_fid": 4906,
    "name": "Birmingham",
    "iso_a2": "US",
    "population": 1128047
  },
  "geometry": {
    "type": "Point",
    "coordinates": [
      -86.8249952,
      33.5300063
    ]
  }
},
{
  "type": "Feature",
  "properties": {
    "ogc_fid": 4915,
    "name": "Virginia Beach",
    "iso_a2": "US",
    "population": 1491000
  },
  "geometry": {
    "type": "Point",
    "coordinates": [
      -75.9802646,
      36.8551602
    ]
  }
},
{
  "type": "Feature",
  "properties": {
    "ogc_fid": 4960,
    "name": "Suwon",
    "iso_a2": "KR",
    "population": 1078000
  },
  "geometry": {
    "type": "Point",
    "coordinates": [
      127.0089472,
      37.259735
    ]
  }
},
{
  "type": "Feature",
  "properties": {
    "ogc_fid": 4961,
    "name": "Leeds",
    "iso_a2": "GB",
    "population": 1529000
  },
  "geometry": {
    "type": "Point",
    "coordinates": [
      -1.551347711412841,
      53.790016637752316
    ]
  }
},
{
  "type": "Feature",
  "properties": {
    "ogc_fid": 4980,
    "name": "Porto",
    "iso_a2": "PT",
    "population": 1337000
  },
  "geometry": {
    "type": "Point",
    "coordinates": [
      -8.6219471,
      41.1519522
    ]
  }
},
{
  "type": "Feature",
  "properties": {
    "ogc_fid": 4983,
    "name": "Rotterdam",
    "iso_a2": "NL",
    "population": 1005000
  },
  "geometry": {
    "type": "Point",
    "coordinates": [
      4.4780285,
      51.921915
    ]
  }
},
{
  "type": "Feature",
  "properties": {
    "ogc_fid": 4994,
    "name": "Faisalabad",
    "iso_a2": "PK",
    "population": 2617000
  },
  "geometry": {
    "type": "Point",
    "coordinates": [
      73.1080513,
      31.4119266
    ]
  }
},
{
  "type": "Feature",
  "properties": {
    "ogc_fid": 4995,
    "name": "Rawalpindi",
    "iso_a2": "PK",
    "population": 1858000
  },
  "geometry": {
    "type": "Point",
    "coordinates": [
      73.067502072993491,
      33.591002294523513
    ]
  }
},
{
  "type": "Feature",
  "properties": {
    "ogc_fid": 5000,
    "name": "Saidu Sharif",
    "iso_a2": "PK",
    "population": 1860310
  },
  "geometry": {
    "type": "Point",
    "coordinates": [
      72.3499918,
      34.7500352
    ]
  }
},
{
  "type": "Feature",
  "properties": {
    "ogc_fid": 5003,
    "name": "Benoni",
    "iso_a2": "ZA",
    "population": 2986000
  },
  "geometry": {
    "type": "Point",
    "coordinates": [
      28.3279939,
      -26.147635
    ]
  }
},
{
  "type": "Feature",
  "properties": {
    "ogc_fid": 5004,
    "name": "Vereeniging",
    "iso_a2": "ZA",
    "population": 1074000
  },
  "geometry": {
    "type": "Point",
    "coordinates": [
      27.9580423,
      -26.6476562
    ]
  }
},
{
  "type": "Feature",
  "properties": {
    "ogc_fid": 5054,
    "name": "Ulsan",
    "iso_a2": "KR",
    "population": 1061000
  },
  "geometry": {
    "type": "Point",
    "coordinates": [
      129.315008,
      35.5486766
    ]
  }
},
{
  "type": "Feature",
  "properties": {
    "ogc_fid": 5055,
    "name": "Daegu",
    "iso_a2": "KR",
    "population": 2460000
  },
  "geometry": {
    "type": "Point",
    "coordinates": [
      128.605025500000011,
      35.8687346
    ]
  }
},
{
  "type": "Feature",
  "properties": {
    "ogc_fid": 5139,
    "name": "Ciudad Juárez",
    "iso_a2": "MX",
    "population": 1343000
  },
  "geometry": {
    "type": "Point",
    "coordinates": [
      -106.4919939,
      31.6923229
    ]
  }
},
{
  "type": "Feature",
  "properties": {
    "ogc_fid": 5155,
    "name": "Nampho",
    "iso_a2": "KP",
    "population": 1127000
  },
  "geometry": {
    "type": "Point",
    "coordinates": [
      125.450488,
      38.7688666
    ]
  }
},
{
  "type": "Feature",
  "properties": {
    "ogc_fid": 5177,
    "name": "Turin",
    "iso_a2": "IT",
    "population": 1652000
  },
  "geometry": {
    "type": "Point",
    "coordinates": [
      7.6680146,
      45.072333
    ]
  }
},
{
  "type": "Feature",
  "properties": {
    "ogc_fid": 5179,
    "name": "Liuzhou",
    "iso_a2": "CN",
    "population": 1497000
  },
  "geometry": {
    "type": "Point",
    "coordinates": [
      109.413529495732519,
      24.32077729521669
    ]
  }
},
{
  "type": "Feature",
  "properties": {
    "ogc_fid": 5183,
    "name": "Wanzhou",
    "iso_a2": "CN",
    "population": 1680000
  },
  "geometry": {
    "type": "Point",
    "coordinates": [
      108.4000394,
      30.8199909
    ]
  }
},
{
  "type": "Feature",
  "properties": {
    "ogc_fid": 5186,
    "name": "Lu'an",
    "iso_a2": "CN",
    "population": 1690000
  },
  "geometry": {
    "type": "Point",
    "coordinates": [
      116.4780655,
      31.7522934
    ]
  }
},
{
  "type": "Feature",
  "properties": {
    "ogc_fid": 5196,
    "name": "Bucaramanga",
    "iso_a2": "CO",
    "population": 1009000
  },
  "geometry": {
    "type": "Point",
    "coordinates": [
      -73.1278289,
      7.1320391
    ]
  }
},
{
  "type": "Feature",
  "properties": {
    "ogc_fid": 5209,
    "name": "Giza",
    "iso_a2": "EG",
    "population": 2681863
  },
  "geometry": {
    "type": "Point",
    "coordinates": [
      31.1900236,
      30.0099886
    ]
  }
},
{
  "type": "Feature",
  "properties": {
    "ogc_fid": 5211,
    "name": "Stuttgart",
    "iso_a2": "DE",
    "population": 2944700
  },
  "geometry": {
    "type": "Point",
    "coordinates": [
      9.1999963,
      48.7799799
    ]
  }
},
{
  "type": "Feature",
  "properties": {
    "ogc_fid": 5223,
    "name": "Haikou",
    "iso_a2": "CN",
    "population": 2046189
  },
  "geometry": {
    "type": "Point",
    "coordinates": [
      110.3200256,
      20.0500023
    ]
  }
},
{
  "type": "Feature",
  "properties": {
    "ogc_fid": 5229,
    "name": "Datong",
    "iso_a2": "CN",
    "population": 1873000
  },
  "geometry": {
    "type": "Point",
    "coordinates": [
      113.2980529,
      40.0819658
    ]
  }
},
{
  "type": "Feature",
  "properties": {
    "ogc_fid": 5230,
    "name": "Jingmen City",
    "iso_a2": "CN",
    "population": 1708000
  },
  "geometry": {
    "type": "Point",
    "coordinates": [
      113.1580614,
      30.6519988
    ]
  }
},
{
  "type": "Feature",
  "properties": {
    "ogc_fid": 5232,
    "name": "Xiantao City",
    "iso_a2": "CN",
    "population": 1556000
  },
  "geometry": {
    "type": "Point",
    "coordinates": [
      113.438096,
      30.3723518
    ]
  }
},
{
  "type": "Feature",
  "properties": {
    "ogc_fid": 5235,
    "name": "Zhuzhou",
    "iso_a2": "CN",
    "population": 1080000
  },
  "geometry": {
    "type": "Point",
    "coordinates": [
      113.1480879,
      27.8319384
    ]
  }
},
{
  "type": "Feature",
  "properties": {
    "ogc_fid": 5237,
    "name": "Yiyang",
    "iso_a2": "CN",
    "population": 1352000
  },
  "geometry": {
    "type": "Point",
    "coordinates": [
      112.3280862,
      28.6023564
    ]
  }
},
{
  "type": "Feature",
  "properties": {
    "ogc_fid": 5238,
    "name": "Changde",
    "iso_a2": "CN",
    "population": 1469000
  },
  "geometry": {
    "type": "Point",
    "coordinates": [
      111.6781001,
      29.0319426
    ]
  }
},
{
  "type": "Feature",
  "properties": {
    "ogc_fid": 5240,
    "name": "Leshan",
    "iso_a2": "CN",
    "population": 1157000
  },
  "geometry": {
    "type": "Point",
    "coordinates": [
      103.7314017,
      29.5690416
    ]
  }
},
{
  "type": "Feature",
  "properties": {
    "ogc_fid": 5244,
    "name": "Luzhou",
    "iso_a2": "CN",
    "population": 1537000
  },
  "geometry": {
    "type": "Point",
    "coordinates": [
      105.3780712,
      28.8819259
    ]
  }
},
{
  "type": "Feature",
  "properties": {
    "ogc_fid": 5250,
    "name": "Qinhuangdao",
    "iso_a2": "CN",
    "population": 1003000
  },
  "geometry": {
    "type": "Point",
    "coordinates": [
      119.6180805,
      39.9323109
    ]
  }
},
{
  "type": "Feature",
  "properties": {
    "ogc_fid": 5252,
    "name": "Zhangjiakou",
    "iso_a2": "CN",
    "population": 1046000
  },
  "geometry": {
    "type": "Point",
    "coordinates": [
      114.852026910114375,
      40.805255169332348
    ]
  }
},
{
  "type": "Feature",
  "properties": {
    "ogc_fid": 5253,
    "name": "Tangshan",
    "iso_a2": "CN",
    "population": 1879000
  },
  "geometry": {
    "type": "Point",
    "coordinates": [
      118.1924311,
      39.626283
    ]
  }
},
{
  "type": "Feature",
  "properties": {
    "ogc_fid": 5257,
    "name": "Shangqiu",
    "iso_a2": "CN",
    "population": 1753000
  },
  "geometry": {
    "type": "Point",
    "coordinates": [
      115.649610022157034,
      34.4129416652438
    ]
  }
},
{
  "type": "Feature",
  "properties": {
    "ogc_fid": 5259,
    "name": "Xinyang",
    "iso_a2": "CN",
    "population": 1541000
  },
  "geometry": {
    "type": "Point",
    "coordinates": [
      114.0680317,
      32.1323219
    ]
  }
},
{
  "type": "Feature",
  "properties": {
    "ogc_fid": 5261,
    "name": "Luoyang",
    "iso_a2": "CN",
    "population": 1715000
  },
  "geometry": {
    "type": "Point",
    "coordinates": [
      112.44447121332469,
      34.643770028425635
    ]
  }
},
{
  "type": "Feature",
  "properties": {
    "ogc_fid": 5267,
    "name": "Benxi",
    "iso_a2": "CN",
    "population": 1012000
  },
  "geometry": {
    "type": "Point",
    "coordinates": [
      123.748061,
      41.3323288
    ]
  }
},
{
  "type": "Feature",
  "properties": {
    "ogc_fid": 5268,
    "name": "Fushun",
    "iso_a2": "CN",
    "population": 1470000
  },
  "geometry": {
    "type": "Point",
    "coordinates": [
      123.8680537,
      41.8673349
    ]
  }
},
{
  "type": "Feature",
  "properties": {
    "ogc_fid": 5269,
    "name": "Jining",
    "iso_a2": "CN",
    "population": 1186000
  },
  "geometry": {
    "type": "Point",
    "coordinates": [
      116.5480871,
      35.4023548
    ]
  }
},
{
  "type": "Feature",
  "properties": {
    "ogc_fid": 5270,
    "name": "Weifang",
    "iso_a2": "CN",
    "population": 1553000
  },
  "geometry": {
    "type": "Point",
    "coordinates": [
      119.155625699428981,
      36.702285137592035
    ]
  }
},
{
  "type": "Feature",
  "properties": {
    "ogc_fid": 5271,
    "name": "Tai'an",
    "iso_a2": "CN",
    "population": 1629000
  },
  "geometry": {
    "type": "Point",
    "coordinates": [
      117.1181298,
      36.2019443
    ]
  }
},
{
  "type": "Feature",
  "properties": {
    "ogc_fid": 5272,
    "name": "Heze",
    "iso_a2": "CN",
    "population": 1338000
  },
  "geometry": {
    "type": "Point",
    "coordinates": [
      115.4481025,
      35.2319259
    ]
  }
},
{
  "type": "Feature",
  "properties": {
    "ogc_fid": 5275,
    "name": "Ganzhou",
    "iso_a2": "CN",
    "population": 1500000
  },
  "geometry": {
    "type": "Point",
    "coordinates": [
      114.9500272,
      25.9199799
    ]
  }
},
{
  "type": "Feature",
  "properties": {
    "ogc_fid": 5277,
    "name": "Changzhou",
    "iso_a2": "CN",
    "population": 1327000
  },
  "geometry": {
    "type": "Point",
    "coordinates": [
      119.9680333,
      31.7819298
    ]
  }
},
{
  "type": "Feature",
  "properties": {
    "ogc_fid": 5281,
    "name": "Huzhou",
    "iso_a2": "CN",
    "population": 1231000
  },
  "geometry": {
    "type": "Point",
    "coordinates": [
      120.0980513,
      30.8723212
    ]
  }
},
{
  "type": "Feature",
  "properties": {
    "ogc_fid": 5283,
    "name": "Jinhua",
    "iso_a2": "CN",
    "population": 1092852
  },
  "geometry": {
    "type": "Point",
    "coordinates": [
      119.6499987,
      29.1200429
    ]
  }
},
{
  "type": "Feature",
  "properties": {
    "ogc_fid": 5302,
    "name": "Mudanjiang",
    "iso_a2": "CN",
    "population": 1244000
  },
  "geometry": {
    "type": "Point",
    "coordinates": [
      129.5880663,
      44.5769628
    ]
  }
},
{
  "type": "Feature",
  "properties": {
    "ogc_fid": 5306,
    "name": "Kōbe",
    "iso_a2": "JP",
    "population": 1528478
  },
  "geometry": {
    "type": "Point",
    "coordinates": [
      135.1699816,
      34.6799878
    ]
  }
},
{
  "type": "Feature",
  "properties": {
    "ogc_fid": 5307,
    "name": "Yokohama",
    "iso_a2": "JP",
    "population": 3697894
  },
  "geometry": {
    "type": "Point",
    "coordinates": [
      139.602021,
      35.4306562
    ]
  }
},
{
  "type": "Feature",
  "properties": {
    "ogc_fid": 5318,
    "name": "Warangal",
    "iso_a2": "IN",
    "population": 1203853
  },
  "geometry": {
    "type": "Point",
    "coordinates": [
      79.5799898,
      18.0099976
    ]
  }
},
{
  "type": "Feature",
  "properties": {
    "ogc_fid": 5334,
    "name": "Lille",
    "iso_a2": "FR",
    "population": 1044000
  },
  "geometry": {
    "type": "Point",
    "coordinates": [
      3.0780622,
      50.651915
    ]
  }
},
{
  "type": "Feature",
  "properties": {
    "ogc_fid": 5394,
    "name": "Oakland",
    "iso_a2": "US",
    "population": 1510271
  },
  "geometry": {
    "type": "Point",
    "coordinates": [
      -122.278038187079517,
      37.804725027887017
    ]
  }
},
{
  "type": "Feature",
  "properties": {
    "ogc_fid": 5415,
    "name": "West Palm Beach",
    "iso_a2": "US",
    "population": 1250000
  },
  "geometry": {
    "type": "Point",
    "coordinates": [
      -80.1236213,
      26.74502
    ]
  }
},
{
  "type": "Feature",
  "properties": {
    "ogc_fid": 5434,
    "name": "Columbus",
    "iso_a2": "US",
    "population": 1270000
  },
  "geometry": {
    "type": "Point",
    "coordinates": [
      -82.9919555,
      39.9819202
    ]
  }
},
{
  "type": "Feature",
  "properties": {
    "ogc_fid": 5444,
    "name": "Maracay",
    "iso_a2": "VE",
    "population": 1007000
  },
  "geometry": {
    "type": "Point",
    "coordinates": [
      -67.597753,
      10.2488256
    ]
  }
},
{
  "type": "Feature",
  "properties": {
    "ogc_fid": 5479,
    "name": "Cần Thơ",
    "iso_a2": "VN",
    "population": 1121000
  },
  "geometry": {
    "type": "Point",
    "coordinates": [
      105.7700191,
      10.0499925
    ]
  }
},
{
  "type": "Feature",
  "properties": {
    "ogc_fid": 5510,
    "name": "Vitoria",
    "iso_a2": "BR",
    "population": 1704000
  },
  "geometry": {
    "type": "Point",
    "coordinates": [
      -40.353943354760389,
      -20.332042290924733
    ]
  }
},
{
  "type": "Feature",
  "properties": {
    "ogc_fid": 5612,
    "name": "Gaziantep",
    "iso_a2": "TR",
    "population": 1044000
  },
  "geometry": {
    "type": "Point",
    "coordinates": [
      37.3830484,
      37.0769296
    ]
  }
},
{
  "type": "Feature",
  "properties": {
    "ogc_fid": 5623,
    "name": "Homs",
    "iso_a2": "SY",
    "population": 1005000
  },
  "geometry": {
    "type": "Point",
    "coordinates": [
      36.7180761,
      34.7319048
    ]
  }
},
{
  "type": "Feature",
  "properties": {
    "ogc_fid": 5762,
    "name": "Cagayan de Oro",
    "iso_a2": "PH",
    "population": 1121561
  },
  "geometry": {
    "type": "Point",
    "coordinates": [
      124.6852986,
      8.4508395
    ]
  }
},
{
  "type": "Feature",
  "properties": {
    "ogc_fid": 5821,
    "name": "Zhuhai",
    "iso_a2": "CN",
    "population": 1023000
  },
  "geometry": {
    "type": "Point",
    "coordinates": [
      113.5658319,
      22.2788903
    ]
  }
},
{
  "type": "Feature",
  "properties": {
    "ogc_fid": 5875,
    "name": "Cologne",
    "iso_a2": "DE",
    "population": 1004000
  },
  "geometry": {
    "type": "Point",
    "coordinates": [
      6.9480586,
      50.9319495
    ]
  }
},
{
  "type": "Feature",
  "properties": {
    "ogc_fid": 5877,
    "name": "Xianyang",
    "iso_a2": "CN",
    "population": 1126000
  },
  "geometry": {
    "type": "Point",
    "coordinates": [
      108.7127763,
      34.3475015
    ]
  }
},
{
  "type": "Feature",
  "properties": {
    "ogc_fid": 5878,
    "name": "Xiangyang",
    "iso_a2": "CN",
    "population": 1069000
  },
  "geometry": {
    "type": "Point",
    "coordinates": [
      112.1280985,
      32.021941
    ]
  }
},
{
  "type": "Feature",
  "properties": {
    "ogc_fid": 5879,
    "name": "Suining",
    "iso_a2": "CN",
    "population": 1425000
  },
  "geometry": {
    "type": "Point",
    "coordinates": [
      105.5313874,
      30.5352792
    ]
  }
},
{
  "type": "Feature",
  "properties": {
    "ogc_fid": 5900,
    "name": "Kumasi",
    "iso_a2": "GH",
    "population": 1646000
  },
  "geometry": {
    "type": "Point",
    "coordinates": [
      -1.6319603,
      6.6919367
    ]
  }
},
{
  "type": "Feature",
  "properties": {
    "ogc_fid": 6073,
    "name": "Vila Velha",
    "iso_a2": "BR",
    "population": 1209091
  },
  "geometry": {
    "type": "Point",
    "coordinates": [
      -51.2166519,
      3.2166628
    ]
  }
},
{
  "type": "Feature",
  "properties": {
    "ogc_fid": 6108,
    "name": "Santos",
    "iso_a2": "BR",
    "population": 1709000
  },
  "geometry": {
    "type": "Point",
    "coordinates": [
      -46.328495714600074,
      -23.961835598193826
    ]
  }
},
{
  "type": "Feature",
  "properties": {
    "ogc_fid": 6166,
    "name": "New Taipei",
    "iso_a2": "TW",
    "population": 3893740
  },
  "geometry": {
    "type": "Point",
    "coordinates": [
      121.465,
      25.0127778
    ]
  }
},
{
  "type": "Feature",
  "properties": {
    "ogc_fid": 6167,
    "name": "Tainan",
    "iso_a2": "TW",
    "population": 1876312
  },
  "geometry": {
    "type": "Point",
    "coordinates": [
      120.2000427,
      23.0000031
    ]
  }
},
{
  "type": "Feature",
  "properties": {
    "ogc_fid": 6169,
    "name": "San Bernardino",
    "iso_a2": "US",
    "population": 1745000
  },
  "geometry": {
    "type": "Point",
    "coordinates": [
      -117.3019801,
      34.1223296
    ]
  }
},
{
  "type": "Feature",
  "properties": {
    "ogc_fid": 6170,
    "name": "Bridgeport",
    "iso_a2": "US",
    "population": 1018000
  },
  "geometry": {
    "type": "Point",
    "coordinates": [
      -73.201907,
      41.1819245
    ]
  }
},
{
  "type": "Feature",
  "properties": {
    "ogc_fid": 6172,
    "name": "Manchester",
    "iso_a2": "GB",
    "population": 2230000
  },
  "geometry": {
    "type": "Point",
    "coordinates": [
      -2.248684667159885,
      53.475319924724531
    ]
  }
},
{
  "type": "Feature",
  "properties": {
    "ogc_fid": 6173,
    "name": "Gujranwala",
    "iso_a2": "PK",
    "population": 1513000
  },
  "geometry": {
    "type": "Point",
    "coordinates": [
      74.1830761,
      32.1623717
    ]
  }
},
{
  "type": "Feature",
  "properties": {
    "ogc_fid": 6174,
    "name": "Incheon",
    "iso_a2": "KR",
    "population": 2550000
  },
  "geometry": {
    "type": "Point",
    "coordinates": [
      126.6402876,
      37.4780937
    ]
  }
},
{
  "type": "Feature",
  "properties": {
    "ogc_fid": 6175,
    "name": "Benin City",
    "iso_a2": "NG",
    "population": 1190000
  },
  "geometry": {
    "type": "Point",
    "coordinates": [
      5.6180622,
      6.3424232
    ]
  }
},
{
  "type": "Feature",
  "properties": {
    "ogc_fid": 6176,
    "name": "Xiamen",
    "iso_a2": "CN",
    "population": 2519000
  },
  "geometry": {
    "type": "Point",
    "coordinates": [
      118.0780712,
      24.4519379
    ]
  }
},
{
  "type": "Feature",
  "properties": {
    "ogc_fid": 6177,
    "name": "Nanchong",
    "iso_a2": "CN",
    "population": 2174000
  },
  "geometry": {
    "type": "Point",
    "coordinates": [
      106.1280513,
      30.7823784
    ]
  }
},
{
  "type": "Feature",
  "properties": {
    "ogc_fid": 6178,
    "name": "Neijiang",
    "iso_a2": "CN",
    "population": 1466000
  },
  "geometry": {
    "type": "Point",
    "coordinates": [
      105.0480655,
      29.5823225
    ]
  }
},
{
  "type": "Feature",
  "properties": {
    "ogc_fid": 6179,
    "name": "Nanyang",
    "iso_a2": "CN",
    "population": 1944000
  },
  "geometry": {
    "type": "Point",
    "coordinates": [
      112.528074,
      33.0023463
    ]
  }
},
{
  "type": "Feature",
  "properties": {
    "ogc_fid": 6180,
    "name": "Lianshan",
    "iso_a2": "CN",
    "population": 2426000
  },
  "geometry": {
    "type": "Point",
    "coordinates": [
      120.8280325,
      40.7522867
    ]
  }
},
{
  "type": "Feature",
  "properties": {
    "ogc_fid": 6181,
    "name": "Yantai",
    "iso_a2": "CN",
    "population": 2116000
  },
  "geometry": {
    "type": "Point",
    "coordinates": [
      121.3980753,
      37.532354
    ]
  }
},
{
  "type": "Feature",
  "properties": {
    "ogc_fid": 6182,
    "name": "Zaozhuang",
    "iso_a2": "CN",
    "population": 2145000
  },
  "geometry": {
    "type": "Point",
    "coordinates": [
      117.5680765,
      34.8819473
    ]
  }
},
{
  "type": "Feature",
  "properties": {
    "ogc_fid": 6183,
    "name": "Suzhou",
    "iso_a2": "CN",
    "population": 1650000
  },
  "geometry": {
    "type": "Point",
    "coordinates": [
      120.6180712,
      31.3024242
    ]
  }
},
{
  "type": "Feature",
  "properties": {
    "ogc_fid": 6184,
    "name": "Xuzhou",
    "iso_a2": "CN",
    "population": 2091000
  },
  "geometry": {
    "type": "Point",
    "coordinates": [
      117.1780744,
      34.2819581
    ]
  }
},
{
  "type": "Feature",
  "properties": {
    "ogc_fid": 6185,
    "name": "Wuxi",
    "iso_a2": "CN",
    "population": 1749000
  },
  "geometry": {
    "type": "Point",
    "coordinates": [
      120.298039,
      31.581942
    ]
  }
},
{
  "type": "Feature",
  "properties": {
    "ogc_fid": 6186,
    "name": "Jilin City",
    "iso_a2": "CN",
    "population": 2396000
  },
  "geometry": {
    "type": "Point",
    "coordinates": [
      126.5480968,
      43.8519166
    ]
  }
},
{
  "type": "Feature",
  "properties": {
    "ogc_fid": 6189,
    "name": "Solapur",
    "iso_a2": "IN",
    "population": 1057000
  },
  "geometry": {
    "type": "Point",
    "coordinates": [
      75.8980618,
      17.6723518
    ]
  }
},
{
  "type": "Feature",
  "properties": {
    "ogc_fid": 6190,
    "name": "Aurangabad",
    "iso_a2": "IN",
    "population": 1113000
  },
  "geometry": {
    "type": "Point",
    "coordinates": [
      75.32894831924871,
      19.861686210186296
    ]
  }
},
{
  "type": "Feature",
  "properties": {
    "ogc_fid": 6191,
    "name": "Nashik",
    "iso_a2": "IN",
    "population": 1473000
  },
  "geometry": {
    "type": "Point",
    "coordinates": [
      73.7780362,
      20.0023646
    ]
  }
},
{
  "type": "Feature",
  "properties": {
    "ogc_fid": 6194,
    "name": "Allahabad",
    "iso_a2": "IN",
    "population": 1201000
  },
  "geometry": {
    "type": "Point",
    "coordinates": [
      81.838061,
      25.4569412
    ]
  }
},
{
  "type": "Feature",
  "properties": {
    "ogc_fid": 6196,
    "name": "Ghaziabad",
    "iso_a2": "IN",
    "population": 1341000
  },
  "geometry": {
    "type": "Point",
    "coordinates": [
      77.4064452,
      28.6623269
    ]
  }
},
{
  "type": "Feature",
  "properties": {
    "ogc_fid": 6197,
    "name": "Agra",
    "iso_a2": "IN",
    "population": 1592000
  },
  "geometry": {
    "type": "Point",
    "coordinates": [
      78.0130749,
      27.1723662
    ]
  }
},
{
  "type": "Feature",
  "properties": {
    "ogc_fid": 6199,
    "name": "Meerut",
    "iso_a2": "IN",
    "population": 1398000
  },
  "geometry": {
    "type": "Point",
    "coordinates": [
      77.6980553,
      29.0023579
    ]
  }
},
{
  "type": "Feature",
  "properties": {
    "ogc_fid": 6200,
    "name": "Dhanbad",
    "iso_a2": "IN",
    "population": 1246000
  },
  "geometry": {
    "type": "Point",
    "coordinates": [
      86.4180399,
      23.8023394
    ]
  }
},
{
  "type": "Feature",
  "properties": {
    "ogc_fid": 6202,
    "name": "Vadodara",
    "iso_a2": "IN",
    "population": 1756000
  },
  "geometry": {
    "type": "Point",
    "coordinates": [
      73.1780728,
      22.3119652
    ]
  }
},
{
  "type": "Feature",
  "properties": {
    "ogc_fid": 6203,
    "name": "Rajkot",
    "iso_a2": "IN",
    "population": 1260000
  },
  "geometry": {
    "type": "Point",
    "coordinates": [
      70.7980631,
      22.3119652
    ]
  }
},
{
  "type": "Feature",
  "properties": {
    "ogc_fid": 6228,
    "name": "Kansas City",
    "iso_a2": "US",
    "population": 1469000
  },
  "geometry": {
    "type": "Point",
    "coordinates": [
      -94.6060401,
      39.1090344
    ]
  }
},
{
  "type": "Feature",
  "properties": {
    "ogc_fid": 6233,
    "name": "Fort Worth",
    "iso_a2": "US",
    "population": 1440454
  },
  "geometry": {
    "type": "Point",
    "coordinates": [
      -97.3400381,
      32.739977
    ]
  }
},
{
  "type": "Feature",
  "properties": {
    "ogc_fid": 6234,
    "name": "Douala",
    "iso_a2": "CM",
    "population": 1906000
  },
  "geometry": {
    "type": "Point",
    "coordinates": [
      9.7080451,
      4.0623556
    ]
  }
},
{
  "type": "Feature",
  "properties": {
    "ogc_fid": 6236,
    "name": "Austin",
    "iso_a2": "US",
    "population": 1161000
  },
  "geometry": {
    "type": "Point",
    "coordinates": [
      -97.7447242,
      30.2688955
    ]
  }
},
{
  "type": "Feature",
  "properties": {
    "ogc_fid": 6244,
    "name": "Orlando",
    "iso_a2": "US",
    "population": 1350000
  },
  "geometry": {
    "type": "Point",
    "coordinates": [
      -81.3819762,
      28.5119227
    ]
  }
},
{
  "type": "Feature",
  "properties": {
    "ogc_fid": 6248,
    "name": "Indianapolis",
    "iso_a2": "US",
    "population": 1436000
  },
  "geometry": {
    "type": "Point",
    "coordinates": [
      -86.1719939,
      39.7519343
    ]
  }
},
{
  "type": "Feature",
  "properties": {
    "ogc_fid": 6253,
    "name": "Baltimore",
    "iso_a2": "US",
    "population": 2255000
  },
  "geometry": {
    "type": "Point",
    "coordinates": [
      -76.614582080772706,
      39.281515786413607
    ]
  }
},
{
  "type": "Feature",
  "properties": {
    "ogc_fid": 6266,
    "name": "Dnipro",
    "iso_a2": "UA",
    "population": 1050000
  },
  "geometry": {
    "type": "Point",
    "coordinates": [
      34.9980777,
      48.4819182
    ]
  }
},
{
  "type": "Feature",
  "properties": {
    "ogc_fid": 6268,
    "name": "Kharkiv",
    "iso_a2": "UA",
    "population": 1461000
  },
  "geometry": {
    "type": "Point",
    "coordinates": [
      36.2480789,
      50.0019288
    ]
  }
},
{
  "type": "Feature",
  "properties": {
    "ogc_fid": 6274,
    "name": "Haiphong",
    "iso_a2": "VN",
    "population": 1969000
  },
  "geometry": {
    "type": "Point",
    "coordinates": [
      106.6781469,
      20.8319522
    ]
  }
},
{
  "type": "Feature",
  "properties": {
    "ogc_fid": 6281,
    "name": "Birmingham",
    "iso_a2": "GB",
    "population": 2285000
  },
  "geometry": {
    "type": "Point",
    "coordinates": [
      -1.9219426,
      52.4769198
    ]
  }
},
{
  "type": "Feature",
  "properties": {
    "ogc_fid": 6283,
    "name": "İzmir",
    "iso_a2": "TR",
    "population": 2587000
  },
  "geometry": {
    "type": "Point",
    "coordinates": [
      27.1498482,
      38.4380955
    ]
  }
},
{
  "type": "Feature",
  "properties": {
    "ogc_fid": 6284,
    "name": "Bursa",
    "iso_a2": "TR",
    "population": 1492000
  },
  "geometry": {
    "type": "Point",
    "coordinates": [
      29.0680521,
      40.2019327
    ]
  }
},
{
  "type": "Feature",
  "properties": {
    "ogc_fid": 6287,
    "name": "Adana",
    "iso_a2": "TR",
    "population": 1293000
  },
  "geometry": {
    "type": "Point",
    "coordinates": [
      35.3180582,
      36.9969345
    ]
  }
},
{
  "type": "Feature",
  "properties": {
    "ogc_fid": 6315,
    "name": "Medina",
    "iso_a2": "SA",
    "population": 1010000
  },
  "geometry": {
    "type": "Point",
    "coordinates": [
      39.5780565,
      24.5019349
    ]
  }
},
{
  "type": "Feature",
  "properties": {
    "ogc_fid": 6319,
    "name": "Omdurman",
    "iso_a2": "SD",
    "population": 2395159
  },
  "geometry": {
    "type": "Point",
    "coordinates": [
      32.4800223,
      15.6166811
    ]
  }
},
{
  "type": "Feature",
  "properties": {
    "ogc_fid": 6321,
    "name": "The Hague",
    "iso_a2": "NL",
    "population": 1406000
  },
  "geometry": {
    "type": "Point",
    "coordinates": [
      4.2699613,
      52.0800368
    ]
  }
},
{
  "type": "Feature",
  "properties": {
    "ogc_fid": 6326,
    "name": "Doha",
    "iso_a2": "QA",
    "population": 1450000
  },
  "geometry": {
    "type": "Point",
    "coordinates": [
      51.5329679,
      25.286556
    ]
  }
},
{
  "type": "Feature",
  "properties": {
    "ogc_fid": 6360,
    "name": "Rostov-on-Don",
    "iso_a2": "RU",
    "population": 1052000
  },
  "geometry": {
    "type": "Point",
    "coordinates": [
      39.7107099,
      47.2365937
    ]
  }
},
{
  "type": "Feature",
  "properties": {
    "ogc_fid": 6367,
    "name": "Chelyabinsk",
    "iso_a2": "RU",
    "population": 1091000
  },
  "geometry": {
    "type": "Point",
    "coordinates": [
      61.4367223,
      55.1569371
    ]
  }
},
{
  "type": "Feature",
  "properties": {
    "ogc_fid": 6375,
    "name": "Omsk",
    "iso_a2": "RU",
    "population": 1135000
  },
  "geometry": {
    "type": "Point",
    "coordinates": [
      73.3980077,
      54.9919343
    ]
  }
},
{
  "type": "Feature",
  "properties": {
    "ogc_fid": 6382,
    "name": "Daejeon",
    "iso_a2": "KR",
    "population": 1468000
  },
  "geometry": {
    "type": "Point",
    "coordinates": [
      127.4230822,
      36.3374915
    ]
  }
},
{
  "type": "Feature",
  "properties": {
    "ogc_fid": 6383,
    "name": "Gwangju",
    "iso_a2": "KR",
    "population": 1440000
  },
  "geometry": {
    "type": "Point",
    "coordinates": [
      126.9084883,
      35.1729115
    ]
  }
},
{
  "type": "Feature",
  "properties": {
    "ogc_fid": 6384,
    "name": "Busan",
    "iso_a2": "KR",
    "population": 3480000
  },
  "geometry": {
    "type": "Point",
    "coordinates": [
      129.0081017,
      35.0969988
    ]
  }
},
{
  "type": "Feature",
  "properties": {
    "ogc_fid": 6413,
    "name": "Torreón",
    "iso_a2": "MX",
    "population": 1144000
  },
  "geometry": {
    "type": "Point",
    "coordinates": [
      -103.4219487,
      25.5719988
    ]
  }
},
{
  "type": "Feature",
  "properties": {
    "ogc_fid": 6424,
    "name": "León de Los Aldama",
    "iso_a2": "MX",
    "population": 1488000
  },
  "geometry": {
    "type": "Point",
    "coordinates": [
      -101.7019762,
      21.1519327
    ]
  }
},
{
  "type": "Feature",
  "properties": {
    "ogc_fid": 6426,
    "name": "Port Harcourt",
    "iso_a2": "NG",
    "population": 1020000
  },
  "geometry": {
    "type": "Point",
    "coordinates": [
      7.0080549,
      4.8119481
    ]
  }
},
{
  "type": "Feature",
  "properties": {
    "ogc_fid": 6428,
    "name": "Ibadan",
    "iso_a2": "NG",
    "population": 2628000
  },
  "geometry": {
    "type": "Point",
    "coordinates": [
      3.9280362,
      7.3819721
    ]
  }
},
{
  "type": "Feature",
  "properties": {
    "ogc_fid": 6431,
    "name": "Kaduna",
    "iso_a2": "NG",
    "population": 1442000
  },
  "geometry": {
    "type": "Point",
    "coordinates": [
      7.4380545,
      10.5219613
    ]
  }
},
{
  "type": "Feature",
  "properties": {
    "ogc_fid": 6452,
    "name": "Florence",
    "iso_a2": "IT",
    "population": 1500000
  },
  "geometry": {
    "type": "Point",
    "coordinates": [
      11.2500004,
      43.7800008
    ]
  }
},
{
  "type": "Feature",
  "properties": {
    "ogc_fid": 6459,
    "name": "George Town",
    "iso_a2": "MY",
    "population": 2500000
  },
  "geometry": {
    "type": "Point",
    "coordinates": [
      100.3293679,
      5.4136132
    ]
  }
},
{
  "type": "Feature",
  "properties": {
    "ogc_fid": 6462,
    "name": "Hefei",
    "iso_a2": "CN",
    "population": 2035000
  },
  "geometry": {
    "type": "Point",
    "coordinates": [
      117.2780683,
      31.8519772
    ]
  }
},
{
  "type": "Feature",
  "properties": {
    "ogc_fid": 6463,
    "name": "Tianshui",
    "iso_a2": "CN",
    "population": 1225000
  },
  "geometry": {
    "type": "Point",
    "coordinates": [
      105.9180382,
      34.6019644
    ]
  }
},
{
  "type": "Feature",
  "properties": {
    "ogc_fid": 6466,
    "name": "Yulin",
    "iso_a2": "CN",
    "population": 1127000
  },
  "geometry": {
    "type": "Point",
    "coordinates": [
      110.1480643,
      22.6319198
    ]
  }
},
{
  "type": "Feature",
  "properties": {
    "ogc_fid": 6469,
    "name": "Liupanshui",
    "iso_a2": "CN",
    "population": 1221000
  },
  "geometry": {
    "type": "Point",
    "coordinates": [
      104.8313862,
      26.5963807
    ]
  }
},
{
  "type": "Feature",
  "properties": {
    "ogc_fid": 6470,
    "name": "Quanzhou",
    "iso_a2": "CN",
    "population": 1463000
  },
  "geometry": {
    "type": "Point",
    "coordinates": [
      118.5780407,
      24.9019622
    ]
  }
},
{
  "type": "Feature",
  "properties": {
    "ogc_fid": 6471,
    "name": "Suzhou",
    "iso_a2": "CN",
    "population": 1964000
  },
  "geometry": {
    "type": "Point",
    "coordinates": [
      116.976943,
      33.638057
    ]
  }
},
{
  "type": "Feature",
  "properties": {
    "ogc_fid": 6472,
    "name": "Zhanjiang",
    "iso_a2": "CN",
    "population": 1590000
  },
  "geometry": {
    "type": "Point",
    "coordinates": [
      110.3780761,
      21.2019296
    ]
  }
},
{
  "type": "Feature",
  "properties": {
    "ogc_fid": 6492,
    "name": "Santiago de los Caballeros",
    "iso_a2": "DO",
    "population": 1550753
  },
  "geometry": {
    "type": "Point",
    "coordinates": [
      -70.6700122,
      19.50001
    ]
  }
},
{
  "type": "Feature",
  "properties": {
    "ogc_fid": 6495,
    "name": "Barranquilla",
    "iso_a2": "CO",
    "population": 1798000
  },
  "geometry": {
    "type": "Point",
    "coordinates": [
      -74.8019127,
      10.9619345
    ]
  }
},
{
  "type": "Feature",
  "properties": {
    "ogc_fid": 6513,
    "name": "Ankang",
    "iso_a2": "CN",
    "population": 1100000
  },
  "geometry": {
    "type": "Point",
    "coordinates": [
      109.0200016,
      32.6799807
    ]
  }
},
{
  "type": "Feature",
  "properties": {
    "ogc_fid": 6516,
    "name": "Hengyang",
    "iso_a2": "CN",
    "population": 1016000
  },
  "geometry": {
    "type": "Point",
    "coordinates": [
      112.5880704,
      26.8819705
    ]
  }
},
{
  "type": "Feature",
  "properties": {
    "ogc_fid": 6517,
    "name": "Mianyang",
    "iso_a2": "CN",
    "population": 1396000
  },
  "geometry": {
    "type": "Point",
    "coordinates": [
      104.689992878762823,
      31.464827581292809
    ]
  }
},
{
  "type": "Feature",
  "properties": {
    "ogc_fid": 6521,
    "name": "Shijiazhuang",
    "iso_a2": "CN",
    "population": 2417000
  },
  "geometry": {
    "type": "Point",
    "coordinates": [
      114.4780325,
      38.0519605
    ]
  }
},
{
  "type": "Feature",
  "properties": {
    "ogc_fid": 6522,
    "name": "Handan",
    "iso_a2": "CN",
    "population": 1631000
  },
  "geometry": {
    "type": "Point",
    "coordinates": [
      114.4780325,
      36.5819211
    ]
  }
},
{
  "type": "Feature",
  "properties": {
    "ogc_fid": 6523,
    "name": "Anshan",
    "iso_a2": "CN",
    "population": 1639000
  },
  "geometry": {
    "type": "Point",
    "coordinates": [
      122.9380846,
      41.1169672
    ]
  }
},
{
  "type": "Feature",
  "properties": {
    "ogc_fid": 6524,
    "name": "Dalian",
    "iso_a2": "CN",
    "population": 3167000
  },
  "geometry": {
    "type": "Point",
    "coordinates": [
      121.627885,
      38.9247843
    ]
  }
},
{
  "type": "Feature",
  "properties": {
    "ogc_fid": 6525,
    "name": "Qingdao",
    "iso_a2": "CN",
    "population": 2866000
  },
  "geometry": {
    "type": "Point",
    "coordinates": [
      120.3280631,
      36.0919251
    ]
  }
},
{
  "type": "Feature",
  "properties": {
    "ogc_fid": 6526,
    "name": "Linyi",
    "iso_a2": "CN",
    "population": 2082000
  },
  "geometry": {
    "type": "Point",
    "coordinates": [
      118.3280301,
      35.0819351
    ]
  }
},
{
  "type": "Feature",
  "properties": {
    "ogc_fid": 6527,
    "name": "Huai'an",
    "iso_a2": "CN",
    "population": 1264000
  },
  "geometry": {
    "type": "Point",
    "coordinates": [
      119.065967246689169,
      33.585164903330138
    ]
  }
},
{
  "type": "Feature",
  "properties": {
    "ogc_fid": 6528,
    "name": "Wenzhou",
    "iso_a2": "CN",
    "population": 2350000
  },
  "geometry": {
    "type": "Point",
    "coordinates": [
      120.6481469,
      28.0219268
    ]
  }
},
{
  "type": "Feature",
  "properties": {
    "ogc_fid": 6529,
    "name": "Ningbo",
    "iso_a2": "CN",
    "population": 1923000
  },
  "geometry": {
    "type": "Point",
    "coordinates": [
      121.5480919,
      29.8819166
    ]
  }
},
{
  "type": "Feature",
  "properties": {
    "ogc_fid": 6530,
    "name": "Fukuoka",
    "iso_a2": "JP",
    "population": 2792000
  },
  "geometry": {
    "type": "Point",
    "coordinates": [
      130.4080679,
      33.5969611
    ]
  }
},
{
  "type": "Feature",
  "properties": {
    "ogc_fid": 6537,
    "name": "Hohhot",
    "iso_a2": "CN",
    "population": 1726000
  },
  "geometry": {
    "type": "Point",
    "coordinates": [
      111.6580496,
      40.8219207
    ]
  }
},
{
  "type": "Feature",
  "properties": {
    "ogc_fid": 6538,
    "name": "Chifeng",
    "iso_a2": "CN",
    "population": 1277000
  },
  "geometry": {
    "type": "Point",
    "coordinates": [
      118.9480439,
      42.2719613
    ]
  }
},
{
  "type": "Feature",
  "properties": {
    "ogc_fid": 6541,
    "name": "Jiamusi",
    "iso_a2": "CN",
    "population": 1020000
  },
  "geometry": {
    "type": "Point",
    "coordinates": [
      130.3480716,
      46.8319672
    ]
  }
},
{
  "type": "Feature",
  "properties": {
    "ogc_fid": 6543,
    "name": "Daqing",
    "iso_a2": "CN",
    "population": 1693000
  },
  "geometry": {
    "type": "Point",
    "coordinates": [
      124.9980622,
      46.581905
    ]
  }
},
{
  "type": "Feature",
  "properties": {
    "ogc_fid": 6545,
    "name": "Nagoya",
    "iso_a2": "JP",
    "population": 3230000
  },
  "geometry": {
    "type": "Point",
    "coordinates": [
      136.9130456,
      35.1569434
    ]
  }
},
{
  "type": "Feature",
  "properties": {
    "ogc_fid": 6549,
    "name": "Kyoto",
    "iso_a2": "JP",
    "population": 1805000
  },
  "geometry": {
    "type": "Point",
    "coordinates": [
      135.7480521,
      35.0319381
    ]
  }
},
{
  "type": "Feature",
  "properties": {
    "ogc_fid": 6550,
    "name": "Sendai",
    "iso_a2": "JP",
    "population": 2250000
  },
  "geometry": {
    "type": "Point",
    "coordinates": [
      140.869666855368365,
      38.268440919774399
    ]
  }
},
{
  "type": "Feature",
  "properties": {
    "ogc_fid": 6555,
    "name": "Mbuji-Mayi",
    "iso_a2": "CD",
    "population": 1295000
  },
  "geometry": {
    "type": "Point",
    "coordinates": [
      23.59805,
      -6.1480806
    ]
  }
},
{
  "type": "Feature",
  "properties": {
    "ogc_fid": 6562,
    "name": "Faridabad",
    "iso_a2": "IN",
    "population": 1394000
  },
  "geometry": {
    "type": "Point",
    "coordinates": [
      77.3147208,
      28.4352792
    ]
  }
},
{
  "type": "Feature",
  "properties": {
    "ogc_fid": 6563,
    "name": "Srinagar",
    "iso_a2": "IN",
    "population": 1140000
  },
  "geometry": {
    "type": "Point",
    "coordinates": [
      74.828309109812224,
      34.069473874645354
    ]
  }
},
{
  "type": "Feature",
  "properties": {
    "ogc_fid": 6564,
    "name": "Vijayawada",
    "iso_a2": "IN",
    "population": 1137000
  },
  "geometry": {
    "type": "Point",
    "coordinates": [
      80.6280574,
      16.5219052
    ]
  }
},
{
  "type": "Feature",
  "properties": {
    "ogc_fid": 6566,
    "name": "Kochi",
    "iso_a2": "IN",
    "population": 1519000
  },
  "geometry": {
    "type": "Point",
    "coordinates": [
      76.2219697,
      10.0169534
    ]
  }
},
{
  "type": "Feature",
  "properties": {
    "ogc_fid": 6579,
    "name": "Marseille",
    "iso_a2": "FR",
    "population": 1400000
  },
  "geometry": {
    "type": "Point",
    "coordinates": [
      5.3730643,
      43.2919249
    ]
  }
},
{
  "type": "Feature",
  "properties": {
    "ogc_fid": 6601,
    "name": "Mosul",
    "iso_a2": "IQ",
    "population": 1316000
  },
  "geometry": {
    "type": "Point",
    "coordinates": [
      43.1430586,
      36.3469483
    ]
  }
},
{
  "type": "Feature",
  "properties": {
    "ogc_fid": 6622,
    "name": "Tabriz",
    "iso_a2": "IR",
    "population": 1413000
  },
  "geometry": {
    "type": "Point",
    "coordinates": [
      46.2993,
      38.0882374
    ]
  }
},
{
  "type": "Feature",
  "properties": {
    "ogc_fid": 6623,
    "name": "Ludhiana",
    "iso_a2": "IN",
    "population": 1649000
  },
  "geometry": {
    "type": "Point",
    "coordinates": [
      75.8703116,
      30.9297079
    ]
  }
},
{
  "type": "Feature",
  "properties": {
    "ogc_fid": 6628,
    "name": "Lucknow",
    "iso_a2": "IN",
    "population": 2695000
  },
  "geometry": {
    "type": "Point",
    "coordinates": [
      80.9130529,
      26.8569849
    ]
  }
},
{
  "type": "Feature",
  "properties": {
    "ogc_fid": 6630,
    "name": "Ranchi",
    "iso_a2": "IN",
    "population": 1044000
  },
  "geometry": {
    "type": "Point",
    "coordinates": [
      85.3280805,
      23.3719522
    ]
  }
},
{
  "type": "Feature",
  "properties": {
    "ogc_fid": 6633,
    "name": "Jabalpur",
    "iso_a2": "IN",
    "population": 1285000
  },
  "geometry": {
    "type": "Point",
    "coordinates": [
      79.9531115,
      23.1770028
    ]
  }
},
{
  "type": "Feature",
  "properties": {
    "ogc_fid": 6634,
    "name": "Indore",
    "iso_a2": "IN",
    "population": 2026000
  },
  "geometry": {
    "type": "Point",
    "coordinates": [
      75.8630769,
      22.7170051
    ]
  }
},
{
  "type": "Feature",
  "properties": {
    "ogc_fid": 6644,
    "name": "São Luís",
    "iso_a2": "BR",
    "population": 1038000
  },
  "geometry": {
    "type": "Point",
    "coordinates": [
      -44.2679367,
      -2.5140388
    ]
  }
},
{
  "type": "Feature",
  "properties": {
    "ogc_fid": 6649,
    "name": "Belo Horizonte",
    "iso_a2": "BR",
    "population": 5575000
  },
  "geometry": {
    "type": "Point",
    "coordinates": [
      -43.9169504,
      -19.9130802
    ]
  }
},
{
  "type": "Feature",
  "properties": {
    "ogc_fid": 6659,
    "name": "Maceió",
    "iso_a2": "BR",
    "population": 1186000
  },
  "geometry": {
    "type": "Point",
    "coordinates": [
      -35.7319203,
      -9.6180496
    ]
  }
},
{
  "type": "Feature",
  "properties": {
    "ogc_fid": 6662,
    "name": "Vila Velha",
    "iso_a2": "BR",
    "population": 1209091
  },
  "geometry": {
    "type": "Point",
    "coordinates": [
      -40.290232724874905,
      -20.338046307430577
    ]
  }
},
{
  "type": "Feature",
  "properties": {
    "ogc_fid": 6663,
    "name": "Natal",
    "iso_a2": "BR",
    "population": 1088000
  },
  "geometry": {
    "type": "Point",
    "coordinates": [
      -35.2419502,
      -5.7780773
    ]
  }
},
{
  "type": "Feature",
  "properties": {
    "ogc_fid": 6697,
    "name": "Rosario",
    "iso_a2": "AR",
    "population": 1203000
  },
  "geometry": {
    "type": "Point",
    "coordinates": [
      -60.6682535,
      -32.9491837
    ]
  }
},
{
  "type": "Feature",
  "properties": {
    "ogc_fid": 6698,
    "name": "Campinas",
    "iso_a2": "BR",
    "population": 2791000
  },
  "geometry": {
    "type": "Point",
    "coordinates": [
      -47.05588541861934,
      -22.90789786605005
    ]
  }
},
{
  "type": "Feature",
  "properties": {
    "ogc_fid": 6719,
    "name": "Khulna",
    "iso_a2": "BD",
    "population": 1553000
  },
  "geometry": {
    "type": "Point",
    "coordinates": [
      89.5580549,
      22.8419329
    ]
  }
},
{
  "type": "Feature",
  "properties": {
    "ogc_fid": 6751,
    "name": "Mandalay",
    "iso_a2": "MM",
    "population": 1300000
  },
  "geometry": {
    "type": "Point",
    "coordinates": [
      96.083083,
      21.9719343
    ]
  }
},
{
  "type": "Feature",
  "properties": {
    "ogc_fid": 6767,
    "name": "Taichung",
    "iso_a2": "TW",
    "population": 2629323
  },
  "geometry": {
    "type": "Point",
    "coordinates": [
      120.681667,
      24.1520775
    ]
  }
},
{
  "type": "Feature",
  "properties": {
    "ogc_fid": 6770,
    "name": "Jamshedpur",
    "iso_a2": "IN",
    "population": 1300000
  },
  "geometry": {
    "type": "Point",
    "coordinates": [
      86.1955728,
      22.7894813
    ]
  }
},
{
  "type": "Feature",
  "properties": {
    "ogc_fid": 6771,
    "name": "Montevideo",
    "iso_a2": "UY",
    "population": 1513000
  },
  "geometry": {
    "type": "Point",
    "coordinates": [
      -56.186823378310741,
      -34.905376389708067
    ]
  }
},
{
  "type": "Feature",
  "properties": {
    "ogc_fid": 6775,
    "name": "San Jose",
    "iso_a2": "US",
    "population": 1668000
  },
  "geometry": {
    "type": "Point",
    "coordinates": [
      -121.88817862628899,
      37.330942699737129
    ]
  }
},
{
  "type": "Feature",
  "properties": {
    "ogc_fid": 6776,
    "name": "Sacramento",
    "iso_a2": "US",
    "population": 1604000
  },
  "geometry": {
    "type": "Point",
    "coordinates": [
      -121.4719839,
      38.5769672
    ]
  }
},
{
  "type": "Feature",
  "properties": {
    "ogc_fid": 6777,
    "name": "Las Vegas",
    "iso_a2": "US",
    "population": 1823000
  },
  "geometry": {
    "type": "Point",
    "coordinates": [
      -115.151361556018543,
      36.164763225831962
    ]
  }
},
{
  "type": "Feature",
  "properties": {
    "ogc_fid": 6779,
    "name": "Portland",
    "iso_a2": "US",
    "population": 1875000
  },
  "geometry": {
    "type": "Point",
    "coordinates": [
      -122.6819359,
      45.5219697
    ]
  }
},
{
  "type": "Feature",
  "properties": {
    "ogc_fid": 6786,
    "name": "San Antonio",
    "iso_a2": "US",
    "population": 1473000
  },
  "geometry": {
    "type": "Point",
    "coordinates": [
      -98.492692992098696,
      29.419848478603353
    ]
  }
},
{
  "type": "Feature",
  "properties": {
    "ogc_fid": 6788,
    "name": "Valencia",
    "iso_a2": "VE",
    "population": 1770000
  },
  "geometry": {
    "type": "Point",
    "coordinates": [
      -67.9819673,
      10.2319274
    ]
  }
},
{
  "type": "Feature",
  "properties": {
    "ogc_fid": 6790,
    "name": "Raleigh",
    "iso_a2": "US",
    "population": 1163515
  },
  "geometry": {
    "type": "Point",
    "coordinates": [
      -78.647034636645387,
      35.772696012711862
    ]
  }
},
{
  "type": "Feature",
  "properties": {
    "ogc_fid": 6791,
    "name": "Cleveland",
    "iso_a2": "US",
    "population": 1890000
  },
  "geometry": {
    "type": "Point",
    "coordinates": [
      -81.6969441,
      41.4719327
    ]
  }
},
{
  "type": "Feature",
  "properties": {
    "ogc_fid": 6792,
    "name": "Cincinnati",
    "iso_a2": "US",
    "population": 1636000
  },
  "geometry": {
    "type": "Point",
    "coordinates": [
      -84.4588685,
      39.1638306
    ]
  }
},
{
  "type": "Feature",
  "properties": {
    "ogc_fid": 6794,
    "name": "Memphis",
    "iso_a2": "US",
    "population": 1081000
  },
  "geometry": {
    "type": "Point",
    "coordinates": [
      -90.02877702278532,
      35.144701155151573
    ]
  }
},
{
  "type": "Feature",
  "properties": {
    "ogc_fid": 6795,
    "name": "Norfolk",
    "iso_a2": "US",
    "population": 1047869
  },
  "geometry": {
    "type": "Point",
    "coordinates": [
      -76.2800057,
      36.8499587
    ]
  }
},
{
  "type": "Feature",
  "properties": {
    "ogc_fid": 6796,
    "name": "Milwaukee",
    "iso_a2": "US",
    "population": 1388000
  },
  "geometry": {
    "type": "Point",
    "coordinates": [
      -87.916673214625533,
      43.029608354300805
    ]
  }
},
{
  "type": "Feature",
  "properties": {
    "ogc_fid": 6797,
    "name": "Buffalo",
    "iso_a2": "US",
    "population": 1016000
  },
  "geometry": {
    "type": "Point",
    "coordinates": [
      -78.8819479,
      42.8819241
    ]
  }
},
{
  "type": "Feature",
  "properties": {
    "ogc_fid": 6798,
    "name": "Pittsburgh",
    "iso_a2": "US",
    "population": 1838000
  },
  "geometry": {
    "type": "Point",
    "coordinates": [
      -80.0019313,
      40.4319445
    ]
  }
},
{
  "type": "Feature",
  "properties": {
    "ogc_fid": 6800,
    "name": "Lomé",
    "iso_a2": "TG",
    "population": 1452000
  },
  "geometry": {
    "type": "Point",
    "coordinates": [
      1.2208113,
      6.1338829
    ]
  }
},
{
  "type": "Feature",
  "properties": {
    "ogc_fid": 6801,
    "name": "Tunis",
    "iso_a2": "TN",
    "population": 2412500
  },
  "geometry": {
    "type": "Point",
    "coordinates": [
      10.1796781,
      36.8027781
    ]
  }
},
{
  "type": "Feature",
  "properties": {
    "ogc_fid": 6816,
    "name": "Lusaka",
    "iso_a2": "ZM",
    "population": 1328000
  },
  "geometry": {
    "type": "Point",
    "coordinates": [
      28.2813817,
      -15.4146984
    ]
  }
},
{
  "type": "Feature",
  "properties": {
    "ogc_fid": 6817,
    "name": "Harare",
    "iso_a2": "ZW",
    "population": 1572000
  },
  "geometry": {
    "type": "Point",
    "coordinates": [
      31.0427636,
      -17.8158438
    ]
  }
},
{
  "type": "Feature",
  "properties": {
    "ogc_fid": 6824,
    "name": "Port-au-Prince",
    "iso_a2": "HT",
    "population": 1998000
  },
  "geometry": {
    "type": "Point",
    "coordinates": [
      -72.3379804,
      18.5429705
    ]
  }
},
{
  "type": "Feature",
  "properties": {
    "ogc_fid": 6825,
    "name": "Glasgow",
    "iso_a2": "GB",
    "population": 1160000
  },
  "geometry": {
    "type": "Point",
    "coordinates": [
      -4.239100528802634,
      55.862269757992621
    ]
  }
},
{
  "type": "Feature",
  "properties": {
    "ogc_fid": 6826,
    "name": "Kampala",
    "iso_a2": "UG",
    "population": 1420000
  },
  "geometry": {
    "type": "Point",
    "coordinates": [
      32.5813777,
      0.3186048
    ]
  }
},
{
  "type": "Feature",
  "properties": {
    "ogc_fid": 6829,
    "name": "Seville",
    "iso_a2": "ES",
    "population": 1212045
  },
  "geometry": {
    "type": "Point",
    "coordinates": [
      -5.9800074,
      37.4050153
    ]
  }
},
{
  "type": "Feature",
  "properties": {
    "ogc_fid": 6833,
    "name": "Dushanbe",
    "iso_a2": "TJ",
    "population": 1086244
  },
  "geometry": {
    "type": "Point",
    "coordinates": [
      68.7738794,
      38.5600352
    ]
  }
},
{
  "type": "Feature",
  "properties": {
    "ogc_fid": 6838,
    "name": "Asunción",
    "iso_a2": "PY",
    "population": 1870000
  },
  "geometry": {
    "type": "Point",
    "coordinates": [
      -57.625833755283011,
      -25.29067083610963
    ]
  }
},
{
  "type": "Feature",
  "properties": {
    "ogc_fid": 6850,
    "name": "Multan",
    "iso_a2": "PK",
    "population": 1522000
  },
  "geometry": {
    "type": "Point",
    "coordinates": [
      71.4530618,
      30.2019229
    ]
  }
},
{
  "type": "Feature",
  "properties": {
    "ogc_fid": 6851,
    "name": "Hyderabad",
    "iso_a2": "PK",
    "population": 1459000
  },
  "geometry": {
    "type": "Point",
    "coordinates": [
      68.3730431,
      25.3819329
    ]
  }
},
{
  "type": "Feature",
  "properties": {
    "ogc_fid": 6852,
    "name": "Peshawar",
    "iso_a2": "PK",
    "population": 1303000
  },
  "geometry": {
    "type": "Point",
    "coordinates": [
      71.5330569,
      34.006962
    ]
  }
},
{
  "type": "Feature",
  "properties": {
    "ogc_fid": 6856,
    "name": "Pretoria",
    "iso_a2": "ZA",
    "population": 1338000
  },
  "geometry": {
    "type": "Point",
    "coordinates": [
      28.2274832,
      -25.7049747
    ]
  }
},
{
  "type": "Feature",
  "properties": {
    "ogc_fid": 6859,
    "name": "Panama City",
    "iso_a2": "PA",
    "population": 1281000
  },
  "geometry": {
    "type": "Point",
    "coordinates": [
      -79.534983,
      8.969963
    ]
  }
},
{
  "type": "Feature",
  "properties": {
    "ogc_fid": 6860,
    "name": "Fez",
    "iso_a2": "MA",
    "population": 1002000
  },
  "geometry": {
    "type": "Point",
    "coordinates": [
      -5.0023231,
      34.0565455
    ]
  }
},
{
  "type": "Feature",
  "properties": {
    "ogc_fid": 6861,
    "name": "Rabat",
    "iso_a2": "MA",
    "population": 1705000
  },
  "geometry": {
    "type": "Point",
    "coordinates": [
      -6.8364082,
      34.0253073
    ]
  }
},
{
  "type": "Feature",
  "properties": {
    "ogc_fid": 6865,
    "name": "Port Elizabeth",
    "iso_a2": "ZA",
    "population": 1021000
  },
  "geometry": {
    "type": "Point",
    "coordinates": [
      25.598083,
      -33.9680879
    ]
  }
},
{
  "type": "Feature",
  "properties": {
    "ogc_fid": 6866,
    "name": "Maputo",
    "iso_a2": "MZ",
    "population": 1446000
  },
  "geometry": {
    "type": "Point",
    "coordinates": [
      32.5872171,
      -25.9533316
    ]
  }
},
{
  "type": "Feature",
  "properties": {
    "ogc_fid": 6871,
    "name": "Nizhny Novgorod",
    "iso_a2": "RU",
    "population": 1278000
  },
  "geometry": {
    "type": "Point",
    "coordinates": [
      43.9981485,
      56.3349531
    ]
  }
},
{
  "type": "Feature",
  "properties": {
    "ogc_fid": 6873,
    "name": "Ufa",
    "iso_a2": "RU",
    "population": 1018000
  },
  "geometry": {
    "type": "Point",
    "coordinates": [
      56.0380854,
      54.7919207
    ]
  }
},
{
  "type": "Feature",
  "properties": {
    "ogc_fid": 6874,
    "name": "Yekaterinburg",
    "iso_a2": "RU",
    "population": 1313000
  },
  "geometry": {
    "type": "Point",
    "coordinates": [
      60.5980138,
      56.8519758
    ]
  }
},
{
  "type": "Feature",
  "properties": {
    "ogc_fid": 6875,
    "name": "Samara",
    "iso_a2": "RU",
    "population": 1137000
  },
  "geometry": {
    "type": "Point",
    "coordinates": [
      50.1493493,
      53.1969534
    ]
  }
},
{
  "type": "Feature",
  "properties": {
    "ogc_fid": 6876,
    "name": "Kazan",
    "iso_a2": "RU",
    "population": 1115000
  },
  "geometry": {
    "type": "Point",
    "coordinates": [
      49.1243989,
      55.7518879
    ]
  }
},
{
  "type": "Feature",
  "properties": {
    "ogc_fid": 6879,
    "name": "Novosibirsk",
    "iso_a2": "RU",
    "population": 1389000
  },
  "geometry": {
    "type": "Point",
    "coordinates": [
      82.958096,
      55.031906
    ]
  }
},
{
  "type": "Feature",
  "properties": {
    "ogc_fid": 6880,
    "name": "Mogadishu",
    "iso_a2": "SO",
    "population": 1100000
  },
  "geometry": {
    "type": "Point",
    "coordinates": [
      45.3647318,
      2.0686272
    ]
  }
},
{
  "type": "Feature",
  "properties": {
    "ogc_fid": 6885,
    "name": "Davao City",
    "iso_a2": "PH",
    "population": 1402000
  },
  "geometry": {
    "type": "Point",
    "coordinates": [
      125.6280496,
      7.1119628
    ]
  }
},
{
  "type": "Feature",
  "properties": {
    "ogc_fid": 6896,
    "name": "Tijuana",
    "iso_a2": "MX",
    "population": 1553000
  },
  "geometry": {
    "type": "Point",
    "coordinates": [
      -117.0819418,
      32.5019634
    ]
  }
},
{
  "type": "Feature",
  "properties": {
    "ogc_fid": 6918,
    "name": "Abuja",
    "iso_a2": "NG",
    "population": 1576000
  },
  "geometry": {
    "type": "Point",
    "coordinates": [
      7.489505042885861,
      9.054620406360845
    ]
  }
},
{
  "type": "Feature",
  "properties": {
    "ogc_fid": 6922,
    "name": "Amman",
    "iso_a2": "JO",
    "population": 1060000
  },
  "geometry": {
    "type": "Point",
    "coordinates": [
      35.9313541,
      31.9519711
    ]
  }
},
{
  "type": "Feature",
  "properties": {
    "ogc_fid": 6926,
    "name": "Xining",
    "iso_a2": "CN",
    "population": 1048000
  },
  "geometry": {
    "type": "Point",
    "coordinates": [
      101.768059,
      36.6219445
    ]
  }
},
{
  "type": "Feature",
  "properties": {
    "ogc_fid": 6928,
    "name": "Huainan",
    "iso_a2": "CN",
    "population": 1451000
  },
  "geometry": {
    "type": "Point",
    "coordinates": [
      116.978035,
      32.6319296
    ]
  }
},
{
  "type": "Feature",
  "properties": {
    "ogc_fid": 6929,
    "name": "Shantou",
    "iso_a2": "CN",
    "population": 1601000
  },
  "geometry": {
    "type": "Point",
    "coordinates": [
      116.6680797,
      23.3719522
    ]
  }
},
{
  "type": "Feature",
  "properties": {
    "ogc_fid": 6933,
    "name": "Antananarivo",
    "iso_a2": "MG",
    "population": 1697000
  },
  "geometry": {
    "type": "Point",
    "coordinates": [
      47.514678,
      -18.9146915
    ]
  }
},
{
  "type": "Feature",
  "properties": {
    "ogc_fid": 6934,
    "name": "Semarang",
    "iso_a2": "ID",
    "population": 1396000
  },
  "geometry": {
    "type": "Point",
    "coordinates": [
      110.4180736,
      -6.9646716
    ]
  }
},
{
  "type": "Feature",
  "properties": {
    "ogc_fid": 6935,
    "name": "Palembang",
    "iso_a2": "ID",
    "population": 1749000
  },
  "geometry": {
    "type": "Point",
    "coordinates": [
      104.7480838,
      -2.9780932
    ]
  }
},
{
  "type": "Feature",
  "properties": {
    "ogc_fid": 6937,
    "name": "Makassar",
    "iso_a2": "ID",
    "population": 1262000
  },
  "geometry": {
    "type": "Point",
    "coordinates": [
      119.4300817,
      -5.138013
    ]
  }
},
{
  "type": "Feature",
  "properties": {
    "ogc_fid": 6938,
    "name": "Lyon",
    "iso_a2": "FR",
    "population": 1423000
  },
  "geometry": {
    "type": "Point",
    "coordinates": [
      4.8280846,
      45.7719544
    ]
  }
},
{
  "type": "Feature",
  "properties": {
    "ogc_fid": 6939,
    "name": "Quito",
    "iso_a2": "EC",
    "population": 1701000
  },
  "geometry": {
    "type": "Point",
    "coordinates": [
      -78.501997,
      -0.2130423
    ]
  }
},
{
  "type": "Feature",
  "properties": {
    "ogc_fid": 6940,
    "name": "San José",
    "iso_a2": "CR",
    "population": 1284000
  },
  "geometry": {
    "type": "Point",
    "coordinates": [
      -84.078813969646333,
      9.930370727948475
    ]
  }
},
{
  "type": "Feature",
  "properties": {
    "ogc_fid": 6941,
    "name": "San Salvador",
    "iso_a2": "SV",
    "population": 1433000
  },
  "geometry": {
    "type": "Point",
    "coordinates": [
      -89.215575804527603,
      13.703280259193864
    ]
  }
},
{
  "type": "Feature",
  "properties": {
    "ogc_fid": 6960,
    "name": "Qiqihar",
    "iso_a2": "CN",
    "population": 1641000
  },
  "geometry": {
    "type": "Point",
    "coordinates": [
      123.9880464,
      47.3469229
    ]
  }
},
{
  "type": "Feature",
  "properties": {
    "ogc_fid": 6964,
    "name": "Lubumbashi",
    "iso_a2": "CD",
    "population": 1352000
  },
  "geometry": {
    "type": "Point",
    "coordinates": [
      27.4780716,
      -11.6780789
    ]
  }
},
{
  "type": "Feature",
  "properties": {
    "ogc_fid": 6966,
    "name": "Guatemala City",
    "iso_a2": "GT",
    "population": 1024000
  },
  "geometry": {
    "type": "Point",
    "coordinates": [
      -90.5289114,
      14.6230805
    ]
  }
},
{
  "type": "Feature",
  "properties": {
    "ogc_fid": 6969,
    "name": "Visakhapatnam",
    "iso_a2": "IN",
    "population": 1529000
  },
  "geometry": {
    "type": "Point",
    "coordinates": [
      83.219848461625332,
      17.682903161502161
    ]
  }
},
{
  "type": "Feature",
  "properties": {
    "ogc_fid": 6982,
    "name": "Bamako",
    "iso_a2": "ML",
    "population": 1494000
  },
  "geometry": {
    "type": "Point",
    "coordinates": [
      -8.001985,
      12.6519605
    ]
  }
},
{
  "type": "Feature",
  "properties": {
    "ogc_fid": 6986,
    "name": "Benghazi",
    "iso_a2": "LY",
    "population": 1180000
  },
  "geometry": {
    "type": "Point",
    "coordinates": [
      20.0647773,
      32.1186793
    ]
  }
},
{
  "type": "Feature",
  "properties": {
    "ogc_fid": 6988,
    "name": "Beirut",
    "iso_a2": "LB",
    "population": 1846000
  },
  "geometry": {
    "type": "Point",
    "coordinates": [
      35.5077624,
      33.873921
    ]
  }
},
{
  "type": "Feature",
  "properties": {
    "ogc_fid": 6989,
    "name": "Tbilisi",
    "iso_a2": "GE",
    "population": 1100000
  },
  "geometry": {
    "type": "Point",
    "coordinates": [
      44.7888496,
      41.7269558
    ]
  }
},
{
  "type": "Feature",
  "properties": {
    "ogc_fid": 6993,
    "name": "Almaty",
    "iso_a2": "KZ",
    "population": 1209000
  },
  "geometry": {
    "type": "Point",
    "coordinates": [
      76.9130903,
      43.3269357
    ]
  }
},
{
  "type": "Feature",
  "properties": {
    "ogc_fid": 6994,
    "name": "Isfahan",
    "iso_a2": "IR",
    "population": 1628000
  },
  "geometry": {
    "type": "Point",
    "coordinates": [
      51.6980919,
      32.7019512
    ]
  }
},
{
  "type": "Feature",
  "properties": {
    "ogc_fid": 6995,
    "name": "Shiraz",
    "iso_a2": "IR",
    "population": 1240000
  },
  "geometry": {
    "type": "Point",
    "coordinates": [
      52.5680647,
      29.631906
    ]
  }
},
{
  "type": "Feature",
  "properties": {
    "ogc_fid": 6996,
    "name": "Amritsar",
    "iso_a2": "IN",
    "population": 1212000
  },
  "geometry": {
    "type": "Point",
    "coordinates": [
      74.8680472,
      31.6419384
    ]
  }
},
{
  "type": "Feature",
  "properties": {
    "ogc_fid": 6997,
    "name": "Varanasi",
    "iso_a2": "IN",
    "population": 1352000
  },
  "geometry": {
    "type": "Point",
    "coordinates": [
      82.9980936,
      25.3319359
    ]
  }
},
{
  "type": "Feature",
  "properties": {
    "ogc_fid": 6998,
    "name": "Asansol",
    "iso_a2": "IN",
    "population": 1328000
  },
  "geometry": {
    "type": "Point",
    "coordinates": [
      86.9813874,
      23.6852792
    ]
  }
},
{
  "type": "Feature",
  "properties": {
    "ogc_fid": 6999,
    "name": "Bhilai",
    "iso_a2": "IN",
    "population": 1097000
  },
  "geometry": {
    "type": "Point",
    "coordinates": [
      81.372212952849196,
      21.211261961877451
    ]
  }
},
{
  "type": "Feature",
  "properties": {
    "ogc_fid": 7000,
    "name": "Bhopal",
    "iso_a2": "IN",
    "population": 1727000
  },
  "geometry": {
    "type": "Point",
    "coordinates": [
      77.4080472,
      23.2519337
    ]
  }
},
{
  "type": "Feature",
  "properties": {
    "ogc_fid": 7001,
    "name": "Madurai",
    "iso_a2": "IN",
    "population": 1294000
  },
  "geometry": {
    "type": "Point",
    "coordinates": [
      78.1180814,
      9.9219721
    ]
  }
},
{
  "type": "Feature",
  "properties": {
    "ogc_fid": 7002,
    "name": "Coimbatore",
    "iso_a2": "IN",
    "population": 1696000
  },
  "geometry": {
    "type": "Point",
    "coordinates": [
      76.9480753,
      11.0019062
    ]
  }
},
{
  "type": "Feature",
  "properties": {
    "ogc_fid": 7004,
    "name": "Brazzaville",
    "iso_a2": "CG",
    "population": 1355000
  },
  "geometry": {
    "type": "Point",
    "coordinates": [
      15.2827436,
      -4.2572399
    ]
  }
},
{
  "type": "Feature",
  "properties": {
    "ogc_fid": 7005,
    "name": "Conakry",
    "iso_a2": "GN",
    "population": 1494000
  },
  "geometry": {
    "type": "Point",
    "coordinates": [
      -13.6821809,
      9.5334687
    ]
  }
},
{
  "type": "Feature",
  "properties": {
    "ogc_fid": 7009,
    "name": "Manaus",
    "iso_a2": "BR",
    "population": 1753000
  },
  "geometry": {
    "type": "Point",
    "coordinates": [
      -60.0019634,
      -3.0980859
    ]
  }
},
{
  "type": "Feature",
  "properties": {
    "ogc_fid": 7016,
    "name": "Florianópolis",
    "iso_a2": "BR",
    "population": 1023000
  },
  "geometry": {
    "type": "Point",
    "coordinates": [
      -48.5219664,
      -27.5780387
    ]
  }
},
{
  "type": "Feature",
  "properties": {
    "ogc_fid": 7022,
    "name": "Calgary",
    "iso_a2": "CA",
    "population": 1110000
  },
  "geometry": {
    "type": "Point",
    "coordinates": [
      -114.0819441,
      51.0849376
    ]
  }
},
{
  "type": "Feature",
  "properties": {
    "ogc_fid": 7033,
    "name": "Ottawa",
    "iso_a2": "CA",
    "population": 1145000
  },
  "geometry": {
    "type": "Point",
    "coordinates": [
      -75.7019612,
      45.4186427
    ]
  }
},
{
  "type": "Feature",
  "properties": {
    "ogc_fid": 7043,
    "name": "Belgrade",
    "iso_a2": "RS",
    "population": 1099000
  },
  "geometry": {
    "type": "Point",
    "coordinates": [
      20.4660448,
      44.8205913
    ]
  }
},
{
  "type": "Feature",
  "properties": {
    "ogc_fid": 7053,
    "name": "Córdoba",
    "iso_a2": "AR",
    "population": 1452000
  },
  "geometry": {
    "type": "Point",
    "coordinates": [
      -64.1842404,
      -31.3980122
    ]
  }
},
{
  "type": "Feature",
  "properties": {
    "ogc_fid": 7058,
    "name": "Yaoundé",
    "iso_a2": "CM",
    "population": 1611000
  },
  "geometry": {
    "type": "Point",
    "coordinates": [
      11.5147049,
      3.8686465
    ]
  }
},
{
  "type": "Feature",
  "properties": {
    "ogc_fid": 7060,
    "name": "Yerevan",
    "iso_a2": "AM",
    "population": 1102000
  },
  "geometry": {
    "type": "Point",
    "coordinates": [
      44.5116055,
      40.1830966
    ]
  }
},
{
  "type": "Feature",
  "properties": {
    "ogc_fid": 7061,
    "name": "Baku",
    "iso_a2": "AZ",
    "population": 2122300
  },
  "geometry": {
    "type": "Point",
    "coordinates": [
      49.8602713,
      40.3972179
    ]
  }
},
{
  "type": "Feature",
  "properties": {
    "ogc_fid": 7063,
    "name": "Phnom Penh",
    "iso_a2": "KH",
    "population": 1466000
  },
  "geometry": {
    "type": "Point",
    "coordinates": [
      104.9146886,
      11.551976
    ]
  }
},
{
  "type": "Feature",
  "properties": {
    "ogc_fid": 7065,
    "name": "Huambo",
    "iso_a2": "AO",
    "population": 1100000
  },
  "geometry": {
    "type": "Point",
    "coordinates": [
      15.7580635,
      -12.7480395
    ]
  }
},
{
  "type": "Feature",
  "properties": {
    "ogc_fid": 7066,
    "name": "La Paz",
    "iso_a2": "BO",
    "population": 1590000
  },
  "geometry": {
    "type": "Point",
    "coordinates": [
      -68.151931,
      -16.4960278
    ]
  }
},
{
  "type": "Feature",
  "properties": {
    "ogc_fid": 7067,
    "name": "Santa Cruz de la Sierra",
    "iso_a2": "BO",
    "population": 2102998
  },
  "geometry": {
    "type": "Point",
    "coordinates": [
      -63.2279422,
      -17.7519718
    ]
  }
},
{
  "type": "Feature",
  "properties": {
    "ogc_fid": 7072,
    "name": "Sofia",
    "iso_a2": "BG",
    "population": 1185000
  },
  "geometry": {
    "type": "Point",
    "coordinates": [
      23.3147082,
      42.6852953
    ]
  }
},
{
  "type": "Feature",
  "properties": {
    "ogc_fid": 7073,
    "name": "Minsk",
    "iso_a2": "BY",
    "population": 1805000
  },
  "geometry": {
    "type": "Point",
    "coordinates": [
      27.5646813,
      53.9019233
    ]
  }
},
{
  "type": "Feature",
  "properties": {
    "ogc_fid": 7080,
    "name": "Adelaide",
    "iso_a2": "AU",
    "population": 1145000
  },
  "geometry": {
    "type": "Point",
    "coordinates": [
      138.598059,
      -34.9330419
    ]
  }
},
{
  "type": "Feature",
  "properties": {
    "ogc_fid": 7082,
    "name": "Brisbane",
    "iso_a2": "AU",
    "population": 1860000
  },
  "geometry": {
    "type": "Point",
    "coordinates": [
      153.0331469,
      -27.453085
    ]
  }
},
{
  "type": "Feature",
  "properties": {
    "ogc_fid": 7084,
    "name": "Ouagadougou",
    "iso_a2": "BF",
    "population": 1149000
  },
  "geometry": {
    "type": "Point",
    "coordinates": [
      -1.5266696,
      12.3722618
    ]
  }
},
{
  "type": "Feature",
  "properties": {
    "ogc_fid": 7087,
    "name": "San Juan",
    "iso_a2": "PR",
    "population": 2478905
  },
  "geometry": {
    "type": "Point",
    "coordinates": [
      -66.1299793,
      18.440023
    ]
  }
},
{
  "type": "Feature",
  "properties": {
    "ogc_fid": 7097,
    "name": "Jerusalem",
    "iso_a2": "IL",
    "population": 1029300
  },
  "geometry": {
    "type": "Point",
    "coordinates": [
      35.2066259,
      31.7784078
    ]
  }
},
{
  "type": "Feature",
  "properties": {
    "ogc_fid": 7101,
    "name": "Kaohsiung",
    "iso_a2": "TW",
    "population": 2769072
  },
  "geometry": {
    "type": "Point",
    "coordinates": [
      120.2666019,
      22.6333071
    ]
  }
},
{
  "type": "Feature",
  "properties": {
    "ogc_fid": 7102,
    "name": "Shenzhen",
    "iso_a2": "CN",
    "population": 7581000
  },
  "geometry": {
    "type": "Point",
    "coordinates": [
      114.061153518962769,
      22.548097074123319
    ]
  }
},
{
  "type": "Feature",
  "properties": {
    "ogc_fid": 7103,
    "name": "Zibo",
    "iso_a2": "CN",
    "population": 3061000
  },
  "geometry": {
    "type": "Point",
    "coordinates": [
      117.996459575714397,
      36.82136457648037
    ]
  }
},
{
  "type": "Feature",
  "properties": {
    "ogc_fid": 7104,
    "name": "Minneapolis",
    "iso_a2": "US",
    "population": 2616000
  },
  "geometry": {
    "type": "Point",
    "coordinates": [
      -93.2537322,
      44.9819251
    ]
  }
},
{
  "type": "Feature",
  "properties": {
    "ogc_fid": 7106,
    "name": "Seattle",
    "iso_a2": "US",
    "population": 3074000
  },
  "geometry": {
    "type": "Point",
    "coordinates": [
      -122.315322316039044,
      47.600423319460475
    ]
  }
},
{
  "type": "Feature",
  "properties": {
    "ogc_fid": 7107,
    "name": "Phoenix",
    "iso_a2": "US",
    "population": 3551000
  },
  "geometry": {
    "type": "Point",
    "coordinates": [
      -112.067365277665871,
      33.448322403812632
    ]
  }
},
{
  "type": "Feature",
  "properties": {
    "ogc_fid": 7108,
    "name": "San Diego",
    "iso_a2": "US",
    "population": 2916000
  },
  "geometry": {
    "type": "Point",
    "coordinates": [
      -117.150881454026234,
      32.71891385421138
    ]
  }
},
{
  "type": "Feature",
  "properties": {
    "ogc_fid": 7109,
    "name": "St. Louis",
    "iso_a2": "US",
    "population": 2199000
  },
  "geometry": {
    "type": "Point",
    "coordinates": [
      -90.2419264,
      38.6369636
    ]
  }
},
{
  "type": "Feature",
  "properties": {
    "ogc_fid": 7111,
    "name": "Dallas",
    "iso_a2": "US",
    "population": 4798000
  },
  "geometry": {
    "type": "Point",
    "coordinates": [
      -96.794687225293984,
      32.771958135439206
    ]
  }
},
{
  "type": "Feature",
  "properties": {
    "ogc_fid": 7112,
    "name": "Zürich",
    "iso_a2": "CH",
    "population": 1108000
  },
  "geometry": {
    "type": "Point",
    "coordinates": [
      8.5480643,
      47.3819337
    ]
  }
},
{
  "type": "Feature",
  "properties": {
    "ogc_fid": 7113,
    "name": "Maracaibo",
    "iso_a2": "VE",
    "population": 2072000
  },
  "geometry": {
    "type": "Point",
    "coordinates": [
      -71.6619235,
      10.7319227
    ]
  }
},
{
  "type": "Feature",
  "properties": {
    "ogc_fid": 7114,
    "name": "Boston",
    "iso_a2": "US",
    "population": 4467000
  },
  "geometry": {
    "type": "Point",
    "coordinates": [
      -71.0719595,
      42.331906
    ]
  }
},
{
  "type": "Feature",
  "properties": {
    "ogc_fid": 7115,
    "name": "Tampa",
    "iso_a2": "US",
    "population": 2314000
  },
  "geometry": {
    "type": "Point",
    "coordinates": [
      -82.4605667,
      27.9489338
    ]
  }
},
{
  "type": "Feature",
  "properties": {
    "ogc_fid": 7116,
    "name": "Philadelphia",
    "iso_a2": "US",
    "population": 5492000
  },
  "geometry": {
    "type": "Point",
    "coordinates": [
      -75.179841240281604,
      39.945942437420747
    ]
  }
},
{
  "type": "Feature",
  "properties": {
    "ogc_fid": 7117,
    "name": "Detroit",
    "iso_a2": "US",
    "population": 4101000
  },
  "geometry": {
    "type": "Point",
    "coordinates": [
      -83.051334082160011,
      42.333558005595677
    ]
  }
},
{
  "type": "Feature",
  "properties": {
    "ogc_fid": 7119,
    "name": "Hanoi",
    "iso_a2": "VN",
    "population": 4378000
  },
  "geometry": {
    "type": "Point",
    "coordinates": [
      105.8480683,
      21.0352731
    ]
  }
},
{
  "type": "Feature",
  "properties": {
    "ogc_fid": 7120,
    "name": "Lisbon",
    "iso_a2": "PT",
    "population": 2812000
  },
  "geometry": {
    "type": "Point",
    "coordinates": [
      -9.1468122,
      38.7246687
    ]
  }
},
{
  "type": "Feature",
  "properties": {
    "ogc_fid": 7121,
    "name": "Ho Chi Minh City",
    "iso_a2": "VN",
    "population": 5314000
  },
  "geometry": {
    "type": "Point",
    "coordinates": [
      106.702984702187479,
      10.762124565177512
    ]
  }
},
{
  "type": "Feature",
  "properties": {
    "ogc_fid": 7122,
    "name": "Ankara",
    "iso_a2": "TR",
    "population": 3716000
  },
  "geometry": {
    "type": "Point",
    "coordinates": [
      32.8624458,
      39.9291844
    ]
  }
},
{
  "type": "Feature",
  "properties": {
    "ogc_fid": 7123,
    "name": "Budapest",
    "iso_a2": "HU",
    "population": 1679000
  },
  "geometry": {
    "type": "Point",
    "coordinates": [
      19.0813748,
      47.5019522
    ]
  }
},
{
  "type": "Feature",
  "properties": {
    "ogc_fid": 7124,
    "name": "Sanaa",
    "iso_a2": "YE",
    "population": 2008000
  },
  "geometry": {
    "type": "Point",
    "coordinates": [
      44.2046475,
      15.3566792
    ]
  }
},
{
  "type": "Feature",
  "properties": {
    "ogc_fid": 7125,
    "name": "Barcelona",
    "iso_a2": "ES",
    "population": 4920000
  },
  "geometry": {
    "type": "Point",
    "coordinates": [
      2.1814245,
      41.3852454
    ]
  }
},
{
  "type": "Feature",
  "properties": {
    "ogc_fid": 7126,
    "name": "Bucharest",
    "iso_a2": "RO",
    "population": 1942000
  },
  "geometry": {
    "type": "Point",
    "coordinates": [
      26.0980008,
      44.4353177
    ]
  }
},
{
  "type": "Feature",
  "properties": {
    "ogc_fid": 7127,
    "name": "Aleppo",
    "iso_a2": "SY",
    "population": 2738000
  },
  "geometry": {
    "type": "Point",
    "coordinates": [
      37.1680744,
      36.2319166
    ]
  }
},
{
  "type": "Feature",
  "properties": {
    "ogc_fid": 7128,
    "name": "Damascus",
    "iso_a2": "SY",
    "population": 2466000
  },
  "geometry": {
    "type": "Point",
    "coordinates": [
      36.29805,
      33.5019799
    ]
  }
},
{
  "type": "Feature",
  "properties": {
    "ogc_fid": 7129,
    "name": "Khartoum",
    "iso_a2": "SD",
    "population": 4754000
  },
  "geometry": {
    "type": "Point",
    "coordinates": [
      32.5322334,
      15.5900241
    ]
  }
},
{
  "type": "Feature",
  "properties": {
    "ogc_fid": 7130,
    "name": "Jeddah",
    "iso_a2": "SA",
    "population": 3012000
  },
  "geometry": {
    "type": "Point",
    "coordinates": [
      39.2172517,
      21.5188353
    ]
  }
},
{
  "type": "Feature",
  "properties": {
    "ogc_fid": 7131,
    "name": "Mecca",
    "iso_a2": "SA",
    "population": 1385000
  },
  "geometry": {
    "type": "Point",
    "coordinates": [
      39.8180936,
      21.4319672
    ]
  }
},
{
  "type": "Feature",
  "properties": {
    "ogc_fid": 7133,
    "name": "Lahore",
    "iso_a2": "PK",
    "population": 6577000
  },
  "geometry": {
    "type": "Point",
    "coordinates": [
      74.3480789,
      31.5619174
    ]
  }
},
{
  "type": "Feature",
  "properties": {
    "ogc_fid": 7134,
    "name": "Karachi",
    "iso_a2": "PK",
    "population": 12130000
  },
  "geometry": {
    "type": "Point",
    "coordinates": [
      66.9880631,
      24.8719381
    ]
  }
},
{
  "type": "Feature",
  "properties": {
    "ogc_fid": 7135,
    "name": "Durban",
    "iso_a2": "ZA",
    "population": 2729000
  },
  "geometry": {
    "type": "Point",
    "coordinates": [
      31.010943663262371,
      -29.86066234118211
    ]
  }
},
{
  "type": "Feature",
  "properties": {
    "ogc_fid": 7136,
    "name": "Saint Petersburg",
    "iso_a2": "RU",
    "population": 4553000
  },
  "geometry": {
    "type": "Point",
    "coordinates": [
      30.3140742,
      59.9409604
    ]
  }
},
{
  "type": "Feature",
  "properties": {
    "ogc_fid": 7137,
    "name": "Guadalajara",
    "iso_a2": "MX",
    "population": 4198000
  },
  "geometry": {
    "type": "Point",
    "coordinates": [
      -103.3319801,
      20.671962
    ]
  }
},
{
  "type": "Feature",
  "properties": {
    "ogc_fid": 7138,
    "name": "Puebla City",
    "iso_a2": "MX",
    "population": 2195000
  },
  "geometry": {
    "type": "Point",
    "coordinates": [
      -98.203737255424883,
      19.032593839016364
    ]
  }
},
{
  "type": "Feature",
  "properties": {
    "ogc_fid": 7139,
    "name": "Kano",
    "iso_a2": "NG",
    "population": 3140000
  },
  "geometry": {
    "type": "Point",
    "coordinates": [
      8.5180919,
      12.0019227
    ]
  }
},
{
  "type": "Feature",
  "properties": {
    "ogc_fid": 7140,
    "name": "Warsaw",
    "iso_a2": "PL",
    "population": 1707000
  },
  "geometry": {
    "type": "Point",
    "coordinates": [
      21.005346737742283,
      52.230871973539507
    ]
  }
},
{
  "type": "Feature",
  "properties": {
    "ogc_fid": 7141,
    "name": "Pyongyang",
    "iso_a2": "KP",
    "population": 3300000
  },
  "geometry": {
    "type": "Point",
    "coordinates": [
      125.7527449,
      39.0213846
    ]
  }
},
{
  "type": "Feature",
  "properties": {
    "ogc_fid": 7142,
    "name": "Dar es Salaam",
    "iso_a2": "TZ",
    "population": 2930000
  },
  "geometry": {
    "type": "Point",
    "coordinates": [
      39.266396,
      -6.7980667
    ]
  }
},
{
  "type": "Feature",
  "properties": {
    "ogc_fid": 7143,
    "name": "Medan",
    "iso_a2": "ID",
    "population": 2115000
  },
  "geometry": {
    "type": "Point",
    "coordinates": [
      98.6480944,
      3.5819198
    ]
  }
},
{
  "type": "Feature",
  "properties": {
    "ogc_fid": 7144,
    "name": "Dublin",
    "iso_a2": "IE",
    "population": 1059000
  },
  "geometry": {
    "type": "Point",
    "coordinates": [
      -6.256979517281132,
      53.34673124898314
    ]
  }
},
{
  "type": "Feature",
  "properties": {
    "ogc_fid": 7145,
    "name": "Monrovia",
    "iso_a2": "LR",
    "population": 1041000
  },
  "geometry": {
    "type": "Point",
    "coordinates": [
      -10.7996604,
      6.3145816
    ]
  }
},
{
  "type": "Feature",
  "properties": {
    "ogc_fid": 7146,
    "name": "Naples",
    "iso_a2": "IT",
    "population": 2250000
  },
  "geometry": {
    "type": "Point",
    "coordinates": [
      14.2430655,
      40.8419711
    ]
  }
},
{
  "type": "Feature",
  "properties": {
    "ogc_fid": 7147,
    "name": "Milan",
    "iso_a2": "IT",
    "population": 2945000
  },
  "geometry": {
    "type": "Point",
    "coordinates": [
      9.2030631,
      45.4719211
    ]
  }
},
{
  "type": "Feature",
  "properties": {
    "ogc_fid": 7148,
    "name": "Kuala Lumpur",
    "iso_a2": "MY",
    "population": 1448000
  },
  "geometry": {
    "type": "Point",
    "coordinates": [
      101.688699291061937,
      3.13979694393525
    ]
  }
},
{
  "type": "Feature",
  "properties": {
    "ogc_fid": 7149,
    "name": "Lanzhou",
    "iso_a2": "CN",
    "population": 2561000
  },
  "geometry": {
    "type": "Point",
    "coordinates": [
      103.7900544,
      36.0579737
    ]
  }
},
{
  "type": "Feature",
  "properties": {
    "ogc_fid": 7150,
    "name": "Nanning",
    "iso_a2": "CN",
    "population": 2167000
  },
  "geometry": {
    "type": "Point",
    "coordinates": [
      108.3180985,
      22.8219341
    ]
  }
},
{
  "type": "Feature",
  "properties": {
    "ogc_fid": 7151,
    "name": "Guiyang",
    "iso_a2": "CN",
    "population": 3662000
  },
  "geometry": {
    "type": "Point",
    "coordinates": [
      106.7180928,
      26.5819888
    ]
  }
},
{
  "type": "Feature",
  "properties": {
    "ogc_fid": 7152,
    "name": "Chongqing",
    "iso_a2": "CN",
    "population": 6461000
  },
  "geometry": {
    "type": "Point",
    "coordinates": [
      106.5930358,
      29.5669229
    ]
  }
},
{
  "type": "Feature",
  "properties": {
    "ogc_fid": 7153,
    "name": "Fuzhou",
    "iso_a2": "CN",
    "population": 2606000
  },
  "geometry": {
    "type": "Point",
    "coordinates": [
      119.2981001,
      26.0819418
    ]
  }
},
{
  "type": "Feature",
  "properties": {
    "ogc_fid": 7154,
    "name": "Guangzhou",
    "iso_a2": "CN",
    "population": 8829000
  },
  "geometry": {
    "type": "Point",
    "coordinates": [
      113.261785167129432,
      23.124723432966949
    ]
  }
},
{
  "type": "Feature",
  "properties": {
    "ogc_fid": 7155,
    "name": "Dongguan",
    "iso_a2": "CN",
    "population": 4528000
  },
  "geometry": {
    "type": "Point",
    "coordinates": [
      113.750474065477462,
      23.02153738850798
    ]
  }
},
{
  "type": "Feature",
  "properties": {
    "ogc_fid": 7156,
    "name": "Bandung",
    "iso_a2": "ID",
    "population": 2394000
  },
  "geometry": {
    "type": "Point",
    "coordinates": [
      107.5680667,
      -6.9480834
    ]
  }
},
{
  "type": "Feature",
  "properties": {
    "ogc_fid": 7157,
    "name": "Surabaya",
    "iso_a2": "ID",
    "population": 2845000
  },
  "geometry": {
    "type": "Point",
    "coordinates": [
      112.7488874,
      -7.24729
    ]
  }
},
{
  "type": "Feature",
  "properties": {
    "ogc_fid": 7158,
    "name": "Guayaquil",
    "iso_a2": "EC",
    "population": 2514000
  },
  "geometry": {
    "type": "Point",
    "coordinates": [
      -79.9219878,
      -2.2180879
    ]
  }
},
{
  "type": "Feature",
  "properties": {
    "ogc_fid": 7159,
    "name": "Medellin",
    "iso_a2": "CO",
    "population": 3297000
  },
  "geometry": {
    "type": "Point",
    "coordinates": [
      -75.5769559,
      6.2769491
    ]
  }
},
{
  "type": "Feature",
  "properties": {
    "ogc_fid": 7160,
    "name": "Cali",
    "iso_a2": "CO",
    "population": 2254000
  },
  "geometry": {
    "type": "Point",
    "coordinates": [
      -76.5019123,
      3.401905
    ]
  }
},
{
  "type": "Feature",
  "properties": {
    "ogc_fid": 7161,
    "name": "Havana",
    "iso_a2": "CU",
    "population": 2174000
  },
  "geometry": {
    "type": "Point",
    "coordinates": [
      -82.366128,
      23.1339047
    ]
  }
},
{
  "type": "Feature",
  "properties": {
    "ogc_fid": 7162,
    "name": "Alexandria",
    "iso_a2": "EG",
    "population": 4165000
  },
  "geometry": {
    "type": "Point",
    "coordinates": [
      29.94805,
      31.2019652
    ]
  }
},
{
  "type": "Feature",
  "properties": {
    "ogc_fid": 7163,
    "name": "Frankfurt",
    "iso_a2": "DE",
    "population": 2895000
  },
  "geometry": {
    "type": "Point",
    "coordinates": [
      8.6750154,
      50.0999768
    ]
  }
},
{
  "type": "Feature",
  "properties": {
    "ogc_fid": 7164,
    "name": "Hamburg",
    "iso_a2": "DE",
    "population": 1757000
  },
  "geometry": {
    "type": "Point",
    "coordinates": [
      9.9980533,
      53.5519705
    ]
  }
},
{
  "type": "Feature",
  "properties": {
    "ogc_fid": 7165,
    "name": "Munich",
    "iso_a2": "DE",
    "population": 1275000
  },
  "geometry": {
    "type": "Point",
    "coordinates": [
      11.5730476,
      48.1318879
    ]
  }
},
{
  "type": "Feature",
  "properties": {
    "ogc_fid": 7166,
    "name": "Prague",
    "iso_a2": "CZ",
    "population": 1162000
  },
  "geometry": {
    "type": "Point",
    "coordinates": [
      14.422939486203868,
      50.086966537321501
    ]
  }
},
{
  "type": "Feature",
  "properties": {
    "ogc_fid": 7167,
    "name": "Kuwait City",
    "iso_a2": "KW",
    "population": 2063000
  },
  "geometry": {
    "type": "Point",
    "coordinates": [
      47.9763553,
      29.3716635
    ]
  }
},
{
  "type": "Feature",
  "properties": {
    "ogc_fid": 7168,
    "name": "Xi'an",
    "iso_a2": "CN",
    "population": 4009000
  },
  "geometry": {
    "type": "Point",
    "coordinates": [
      108.8930504,
      34.2769713
    ]
  }
},
{
  "type": "Feature",
  "properties": {
    "ogc_fid": 7169,
    "name": "Taiyuan",
    "iso_a2": "CN",
    "population": 2913000
  },
  "geometry": {
    "type": "Point",
    "coordinates": [
      112.5431119,
      37.8769583
    ]
  }
},
{
  "type": "Feature",
  "properties": {
    "ogc_fid": 7170,
    "name": "Wuhan",
    "iso_a2": "CN",
    "population": 7243000
  },
  "geometry": {
    "type": "Point",
    "coordinates": [
      114.2680712,
      30.5819772
    ]
  }
},
{
  "type": "Feature",
  "properties": {
    "ogc_fid": 7171,
    "name": "Changsha",
    "iso_a2": "CN",
    "population": 2604000
  },
  "geometry": {
    "type": "Point",
    "coordinates": [
      112.9680472,
      28.2019158
    ]
  }
},
{
  "type": "Feature",
  "properties": {
    "ogc_fid": 7172,
    "name": "Kunming",
    "iso_a2": "CN",
    "population": 2931000
  },
  "geometry": {
    "type": "Point",
    "coordinates": [
      102.697439772287439,
      25.042859073104868
    ]
  }
},
{
  "type": "Feature",
  "properties": {
    "ogc_fid": 7173,
    "name": "Zhengzhou",
    "iso_a2": "CN",
    "population": 2636000
  },
  "geometry": {
    "type": "Point",
    "coordinates": [
      113.6631469,
      34.756942
    ]
  }
},
{
  "type": "Feature",
  "properties": {
    "ogc_fid": 7174,
    "name": "Shenyang",
    "iso_a2": "CN",
    "population": 4787000
  },
  "geometry": {
    "type": "Point",
    "coordinates": [
      123.4480277,
      41.8069251
    ]
  }
},
{
  "type": "Feature",
  "properties": {
    "ogc_fid": 7175,
    "name": "Jinan",
    "iso_a2": "CN",
    "population": 2798000
  },
  "geometry": {
    "type": "Point",
    "coordinates": [
      116.9930728,
      36.6769282
    ]
  }
},
{
  "type": "Feature",
  "properties": {
    "ogc_fid": 7176,
    "name": "Tianjin",
    "iso_a2": "CN",
    "population": 7180000
  },
  "geometry": {
    "type": "Point",
    "coordinates": [
      117.196607282088308,
      39.082771761979693
    ]
  }
},
{
  "type": "Feature",
  "properties": {
    "ogc_fid": 7177,
    "name": "Nanchang",
    "iso_a2": "CN",
    "population": 2350000
  },
  "geometry": {
    "type": "Point",
    "coordinates": [
      115.8780504,
      28.6819381
    ]
  }
},
{
  "type": "Feature",
  "properties": {
    "ogc_fid": 7178,
    "name": "Nanjing",
    "iso_a2": "CN",
    "population": 3679000
  },
  "geometry": {
    "type": "Point",
    "coordinates": [
      118.7780285,
      32.051965
    ]
  }
},
{
  "type": "Feature",
  "properties": {
    "ogc_fid": 7179,
    "name": "Hangzhou",
    "iso_a2": "CN",
    "population": 3007000
  },
  "geometry": {
    "type": "Point",
    "coordinates": [
      120.1680728,
      30.2519198
    ]
  }
},
{
  "type": "Feature",
  "properties": {
    "ogc_fid": 7180,
    "name": "Hiroshima",
    "iso_a2": "JP",
    "population": 2045000
  },
  "geometry": {
    "type": "Point",
    "coordinates": [
      132.4409671,
      34.389781
    ]
  }
},
{
  "type": "Feature",
  "properties": {
    "ogc_fid": 7181,
    "name": "Changchun",
    "iso_a2": "CN",
    "population": 3183000
  },
  "geometry": {
    "type": "Point",
    "coordinates": [
      125.3380415,
      43.8669544
    ]
  }
},
{
  "type": "Feature",
  "properties": {
    "ogc_fid": 7182,
    "name": "Baotou",
    "iso_a2": "CN",
    "population": 2036000
  },
  "geometry": {
    "type": "Point",
    "coordinates": [
      109.820074,
      40.6541531
    ]
  }
},
{
  "type": "Feature",
  "properties": {
    "ogc_fid": 7183,
    "name": "Harbin",
    "iso_a2": "CN",
    "population": 3621000
  },
  "geometry": {
    "type": "Point",
    "coordinates": [
      126.648039,
      45.7519298
    ]
  }
},
{
  "type": "Feature",
  "properties": {
    "ogc_fid": 7184,
    "name": "Sapporo",
    "iso_a2": "JP",
    "population": 2544000
  },
  "geometry": {
    "type": "Point",
    "coordinates": [
      141.3380985,
      43.0769251
    ]
  }
},
{
  "type": "Feature",
  "properties": {
    "ogc_fid": 7185,
    "name": "Santo Domingo",
    "iso_a2": "DO",
    "population": 2154000
  },
  "geometry": {
    "type": "Point",
    "coordinates": [
      -69.929742315790548,
      18.470745058048376
    ]
  }
},
{
  "type": "Feature",
  "properties": {
    "ogc_fid": 7186,
    "name": "Accra",
    "iso_a2": "GH",
    "population": 2121000
  },
  "geometry": {
    "type": "Point",
    "coordinates": [
      -0.2186616,
      5.5519805
    ]
  }
},
{
  "type": "Feature",
  "properties": {
    "ogc_fid": 7187,
    "name": "Delhi",
    "iso_a2": "IN",
    "population": 15926000
  },
  "geometry": {
    "type": "Point",
    "coordinates": [
      77.2280582,
      28.6719388
    ]
  }
},
{
  "type": "Feature",
  "properties": {
    "ogc_fid": 7188,
    "name": "Hyderabad",
    "iso_a2": "IN",
    "population": 6376000
  },
  "geometry": {
    "type": "Point",
    "coordinates": [
      78.4780077,
      17.401929
    ]
  }
},
{
  "type": "Feature",
  "properties": {
    "ogc_fid": 7189,
    "name": "Pune",
    "iso_a2": "IN",
    "population": 4672000
  },
  "geometry": {
    "type": "Point",
    "coordinates": [
      73.851891746749146,
      18.516394229926586
    ]
  }
},
{
  "type": "Feature",
  "properties": {
    "ogc_fid": 7190,
    "name": "Nagpur",
    "iso_a2": "IN",
    "population": 2454000
  },
  "geometry": {
    "type": "Point",
    "coordinates": [
      79.088048,
      21.1719056
    ]
  }
},
{
  "type": "Feature",
  "properties": {
    "ogc_fid": 7191,
    "name": "Tripoli",
    "iso_a2": "LY",
    "population": 2189000
  },
  "geometry": {
    "type": "Point",
    "coordinates": [
      13.1800118,
      32.8925
    ]
  }
},
{
  "type": "Feature",
  "properties": {
    "ogc_fid": 7192,
    "name": "Tel Aviv",
    "iso_a2": "IL",
    "population": 3112000
  },
  "geometry": {
    "type": "Point",
    "coordinates": [
      34.7680659,
      32.0819373
    ]
  }
},
{
  "type": "Feature",
  "properties": {
    "ogc_fid": 7193,
    "name": "Helsinki",
    "iso_a2": "FI",
    "population": 1115000
  },
  "geometry": {
    "type": "Point",
    "coordinates": [
      24.932456915043964,
      60.163803849485681
    ]
  }
},